,City,Latitude,Longitude,Max Temp (Celsius),Humidity,Cloudiness,Wind Speed,Country,Date
0,iqaluit,63.7506,-68.5145,-21.0,77,75,2.57,CA,1613452007
1,tasiilaq,65.6145,-37.6368,-3.0,80,90,0.41,GL,1613451787
2,katherine,-14.4667,132.2667,32.0,66,40,1.03,AU,1613452007
3,jamestown,42.097,-79.2353,-5.0,93,90,7.2,US,1613452008
4,safford,32.834,-109.7076,6.67,70,1,2.57,US,1613452008
5,petropavlovsk-kamchatskiy,53.0452,158.6483,-6.0,42,83,0.59,RU,1613452008
6,washougal,45.5826,-122.3534,7.22,81,90,7.2,US,1613452009
7,punta arenas,-53.15,-70.9167,13.0,54,90,8.75,CL,1613451998
8,qui nhon,13.7667,109.2333,23.57,65,35,2.44,VN,1613452009
9,nara,34.6851,135.8049,9.0,37,20,6.69,JP,1613451893
10,geraldton,-28.7667,114.6,27.0,65,40,7.2,AU,1613452010
11,teahupoo,-17.8333,-149.2667,27.0,69,75,4.12,PF,1613452010
12,immenstadt,47.561,10.2199,2.78,94,100,2.14,DE,1613452011
13,mayumba,-3.432,10.6554,25.32,81,100,1.52,GA,1613452011
14,waipawa,-41.4122,175.5153,15.0,77,90,13.38,NZ,1613452011
15,arlit,18.7369,7.3853,18.08,23,0,3.5,NE,1613452011
16,cape town,-33.9258,18.4232,18.89,59,0,5.14,ZA,1613451783
17,lorengau,-2.0226,147.2712,28.82,76,100,5.3,PG,1613452012
18,busselton,-33.65,115.3333,28.62,47,1,4.13,AU,1613452012
19,coihaique,-45.5752,-72.0662,12.0,66,0,2.06,CL,1613452012
20,ushuaia,-54.8,-68.3,13.0,58,40,4.12,AR,1613451901
21,arraial do cabo,-22.9661,-42.0278,24.33,91,26,2.75,BR,1613452013
22,nikolskoye,59.7035,30.7861,-5.0,86,90,5.0,RU,1613452013
23,cabo san lucas,22.8909,-109.9124,16.67,63,20,2.57,MX,1613452013
24,aykhal,66.0,111.5,-29.1,83,4,2.01,RU,1613452014
25,saint george,37.1041,-113.5841,10.0,43,90,3.6,US,1613451716
26,bambous virieux,-20.3428,57.7575,28.33,83,75,1.54,MU,1613452014
27,deder,9.3167,41.45,16.38,35,14,1.69,ET,1613452015
28,svetlyy,54.675,20.1347,-6.0,93,100,3.0,RU,1613452015
29,mar del plata,-38.0023,-57.5575,20.0,100,90,2.06,AR,1613451765
30,doha,25.2867,51.5333,21.67,72,0,0.51,QA,1613452015
31,esperance,-33.8667,121.9,38.0,20,14,3.6,AU,1613452016
32,cherskiy,68.75,161.3,-26.11,89,94,0.95,RU,1613452016
33,vardo,70.3705,31.1107,-11.0,79,75,4.12,NO,1613452016
34,hithadhoo,-0.6,73.0833,28.03,69,1,1.08,MV,1613452016
35,nakodar,31.1258,75.4733,21.67,61,0,1.2,IN,1613452017
36,dikson,73.5069,80.5464,-33.62,80,7,4.52,RU,1613452017
37,salumbar,24.1333,74.05,25.0,36,0,1.18,IN,1613452018
38,jalu,29.0331,21.5482,7.11,68,4,4.87,LY,1613452018
39,souillac,-20.5167,57.5167,26.0,83,75,1.54,MU,1613452018
40,arvika,59.6553,12.5852,-3.0,100,90,1.54,SE,1613452019
41,broken hill,-31.95,141.4333,32.0,22,99,6.69,AU,1613452021
42,mossendjo,-2.9506,12.7261,20.48,98,100,0.74,CG,1613452021
43,hobart,-42.8794,147.3294,24.0,41,20,6.17,AU,1613452022
44,aswan,24.0934,32.907,15.69,33,11,3.74,EG,1613452022
45,emilio carranza,19.9711,-96.6114,13.18,77,97,4.41,MX,1613452022
46,hirara,24.8,125.2833,22.0,56,20,5.66,JP,1613452022
47,bethel,41.3712,-73.414,0.0,93,90,4.12,US,1613452023
48,port macquarie,-31.4333,152.9167,26.11,60,50,0.89,AU,1613451936
49,port elizabeth,-33.918,25.5701,16.0,100,75,2.06,ZA,1613451760
50,svetlogorsk,52.6333,29.7333,-21.41,92,26,1.42,BY,1613452024
51,thompson,55.7435,-97.8558,-27.0,76,1,1.33,CA,1613452024
52,yellowknife,62.456,-114.3525,-26.67,83,20,2.06,CA,1613452024
53,fairbanks,64.8378,-147.7164,-15.0,78,75,0.69,US,1613452024
54,ponta do sol,32.6667,-17.1,15.0,82,20,2.57,PT,1613452025
55,hovd,48.0056,91.6419,-6.34,75,10,1.65,MN,1613452025
56,moree,-29.4667,149.85,32.0,23,40,8.23,AU,1613452004
57,albany,42.6001,-73.9662,-2.78,76,100,0.59,US,1613452004
58,airai,-8.9266,125.4092,22.39,78,100,2.24,TL,1613452026
59,bilibino,68.0546,166.4372,-24.24,84,32,0.3,RU,1613452026
60,rikitea,-23.1203,-134.9692,26.55,78,2,5.63,PF,1613452026
61,victoria,22.2855,114.1577,25.0,46,20,4.12,HK,1613451901
62,porto velho,-8.7619,-63.9039,25.0,94,0,1.54,BR,1613452027
63,ilulissat,69.2167,-51.1,-16.0,51,100,4.12,GL,1613452028
64,batken,39.8333,71.0,2.05,69,87,1.44,KG,1613452028
65,zemio,5.0314,25.1361,19.11,36,100,0.57,CF,1613452028
66,adrar,20.5022,-10.0711,15.59,34,92,7.31,MR,1613451729
67,adana,36.985,35.2881,11.0,93,75,2.06,TR,1613451986
68,mahebourg,-20.4081,57.7,26.0,83,75,1.54,MU,1613452029
69,chokurdakh,70.6333,147.9167,-30.63,85,58,1.0,RU,1613452029
70,castro,-24.7911,-50.0119,15.11,94,1,1.39,BR,1613452029
71,saint-philippe,-21.3585,55.7679,29.0,61,0,3.09,RE,1613452030
72,samana,19.2056,-69.3369,23.64,80,10,5.17,DO,1613452030
73,puerto ayora,-0.7393,-90.3518,25.0,91,52,0.89,EC,1613452030
74,torbay,47.6666,-52.7314,-3.89,74,90,6.17,CA,1613451798
75,dwarka,22.2394,68.9678,23.51,67,2,2.29,IN,1613452031
76,dzerzhinsk,56.2389,43.4631,-27.78,76,0,2.49,RU,1613452031
77,georgetown,5.4112,100.3354,31.0,51,20,2.06,MY,1613451792
78,swift current,50.2834,-107.8014,-16.0,66,90,7.2,CA,1613452032
79,atuona,-9.8,-139.0333,26.01,78,21,6.74,PF,1613452032
80,lebu,-37.6167,-73.65,12.67,88,1,5.31,CL,1613452032
81,moerai,-22.4333,-151.3333,27.96,77,94,4.59,PF,1613452032
82,topolevo,48.4994,135.1975,-9.0,79,90,8.0,RU,1613452033
83,awjilah,29.1081,21.2869,7.62,70,8,4.65,LY,1613452033
84,tankhoy,51.5528,105.1306,-12.06,92,99,3.33,RU,1613452033
85,hermanus,-34.4187,19.2345,15.0,92,28,1.34,ZA,1613452034
86,gorontalo,0.5412,123.0595,32.26,57,79,2.79,ID,1613452034
87,mashhad,36.297,59.6062,9.0,43,0,2.06,IR,1613451873
88,guarapari,-20.6667,-40.4975,23.0,94,75,0.51,BR,1613452035
89,chapais,49.7834,-74.8492,-25.0,84,1,2.06,CA,1613452035
90,nishihara,26.1842,127.7558,20.0,55,20,3.6,JP,1613452035
91,camacha,33.0833,-16.3333,15.0,88,20,3.6,PT,1613452036
92,comodoro rivadavia,-45.8667,-67.5,13.0,82,0,1.03,AR,1613451956
93,touros,-5.1989,-35.4608,26.0,89,40,2.57,BR,1613452037
94,ilhabela,-23.7781,-45.3581,24.17,80,0,1.98,BR,1613452037
95,bredasdorp,-34.5322,20.0403,15.0,94,87,2.57,ZA,1613452037
96,flinders,-34.5833,150.8552,24.44,73,75,6.69,AU,1613452038
97,ixtapa,20.7,-105.2,20.0,77,90,1.22,MX,1613452038
98,khatanga,71.9667,102.5,-31.66,82,0,4.19,RU,1613452039
99,mataura,-46.1927,168.8643,13.89,62,7,5.36,NZ,1613452039
100,luderitz,-26.6481,15.1594,17.77,61,0,7.54,NA,1613452040
101,muisne,0.6,-80.0333,24.36,86,100,1.87,EC,1613452040
102,faanui,-16.4833,-151.75,26.26,75,100,4.65,PF,1613452040
103,jennings,38.7192,-90.2604,-17.78,71,90,4.63,US,1613452041
104,katsuura,35.1333,140.3,15.0,36,20,10.29,JP,1613452041
105,xai-xai,-25.0519,33.6442,25.66,87,100,11.19,MZ,1613452041
106,blanquefort,44.9125,-0.6366,7.22,87,0,4.12,FR,1613452041
107,hilo,19.7297,-155.09,23.0,88,90,2.06,US,1613451926
108,fort-shevchenko,44.5086,50.263,-1.89,97,100,13.54,KZ,1613452042
109,nome,64.5011,-165.4064,-16.0,66,1,1.54,US,1613452042
110,donskoye,45.4552,41.9741,-11.0,92,90,5.0,RU,1613452042
111,lodwar,3.1191,35.5973,29.46,34,51,2.31,KE,1613452043
112,qaanaaq,77.484,-69.3632,-19.63,88,98,0.81,GL,1613452043
113,clarence town,-32.5833,151.7833,25.56,69,75,5.66,AU,1613452043
114,ancud,-41.8697,-73.8203,11.67,81,0,3.09,CL,1613452044
115,carnarvon,-24.8667,113.6333,29.0,89,47,7.72,AU,1613452044
116,lincoln,40.8,-96.667,-26.11,69,1,2.57,US,1613452044
117,sambava,-14.2667,50.1667,26.57,82,96,1.02,MG,1613452044
118,saint-louis,16.3333,-15.0,23.67,19,97,4.48,SN,1613452045
119,naze,28.3667,129.4833,17.0,51,20,5.14,JP,1613452045
120,okhotsk,59.3833,143.3,-14.85,87,0,2.65,RU,1613452045
121,cruz alta,-28.6386,-53.6064,17.12,96,0,2.16,BR,1613452046
122,chandbali,20.7833,86.7667,29.85,38,0,2.06,IN,1613452046
123,filadelfia,39.9523,-75.1638,2.0,100,90,6.17,US,1613451819
124,port-gentil,-0.7193,8.7815,27.67,80,100,7.25,GA,1613452046
125,jining,35.405,116.5814,6.62,47,0,6.37,CN,1613452047
126,novobiryusinskiy,56.9578,97.7076,-13.64,94,100,2.3,RU,1613452047
127,tiksi,71.6872,128.8694,-27.55,87,50,1.85,RU,1613452047
128,kodiak,57.79,-152.4072,-1.0,93,1,2.06,US,1613452047
129,bluff,-46.6,168.3333,13.89,62,0,5.36,NZ,1613452048
130,broome,42.2506,-75.833,-1.67,93,90,3.09,US,1613452048
131,kachug,53.9606,105.8817,-22.95,83,78,1.47,RU,1613452049
132,port alfred,-33.5906,26.891,16.67,94,57,0.89,ZA,1613452049
133,bengkulu,-3.8004,102.2655,31.12,60,78,4.17,ID,1613452050
134,puruaran,19.1,-101.5333,14.29,36,0,1.85,MX,1613452050
135,kudahuvadhoo,2.6708,72.8944,27.6,71,35,3.01,MV,1613452050
136,riachao das neves,-11.7461,-44.91,21.94,90,100,2.3,BR,1613452051
137,sembakung,3.8167,117.25,30.0,74,40,3.09,ID,1613452051
138,tundla,27.2,78.2833,24.0,43,20,2.06,IN,1613452051
139,new norfolk,-42.7826,147.0587,24.0,41,20,6.17,AU,1613452052
140,lompoc,34.6391,-120.4579,12.0,94,90,4.12,US,1613452052
141,paray-le-monial,46.4546,4.1158,2.22,93,0,1.03,FR,1613452052
142,itoman,26.1247,127.6694,20.0,55,20,3.6,JP,1613452053
143,gizo,-8.103,156.8419,28.9,74,77,1.86,SB,1613452053
144,beloha,-25.1667,45.05,26.4,69,100,2.94,MG,1613452029
145,bonavista,48.6499,-53.1147,-4.44,73,99,4.63,CA,1613452053
146,srednekolymsk,67.45,153.6833,-26.5,88,100,0.91,RU,1613452054
147,poshekhonye,58.4993,39.1353,-17.88,93,97,3.93,RU,1613452054
148,mount isa,-20.7333,139.5,35.0,34,40,3.6,AU,1613452054
149,beboto,8.2668,16.939,20.68,22,47,2.5,TD,1613452055
150,north bend,43.4065,-124.2243,9.0,87,90,5.66,US,1613452055
151,tuktoyaktuk,69.4541,-133.0374,-28.0,76,75,1.54,CA,1613452055
152,nanortalik,60.1432,-45.2371,-7.77,86,10,7.23,GL,1613452056
153,saskylakh,71.9167,114.0833,-26.37,87,100,3.77,RU,1613452056
154,honiara,-9.4333,159.95,29.24,73,91,2.13,SB,1613452056
155,semporna,4.4818,118.6112,31.0,66,20,1.54,MY,1613452056
156,viedma,-40.8135,-62.9967,11.4,71,96,0.94,AR,1613452057
157,kapaa,22.0752,-159.319,23.0,88,75,2.06,US,1613451887
158,nueva loja,0.0847,-76.8828,22.43,96,100,0.75,EC,1613452057
159,antofagasta,-23.65,-70.4,18.0,82,0,1.54,CL,1613452057
160,lakatoro,-16.0999,167.4164,28.38,78,68,3.13,VU,1613452058
161,vaini,-21.2,-175.2,29.0,74,40,1.54,TO,1613452058
162,valleyview,55.0667,-117.2859,-18.0,71,100,1.03,CA,1613452058
163,caravelas,-17.7125,-39.2481,24.78,79,100,3.29,BR,1613452059
164,cidreira,-30.1811,-50.2056,21.53,88,88,2.78,BR,1613452059
165,morshansk,53.4435,41.8107,-25.48,89,3,1.22,RU,1613452059
166,talnakh,69.4865,88.3972,-24.21,80,100,0.95,RU,1613452022
167,alofi,-19.0595,-169.9187,27.0,83,99,2.57,NU,1613452060
168,pevek,69.7008,170.3133,-28.61,85,2,0.59,RU,1613452061
169,ahipara,-35.1667,173.1667,20.62,79,95,6.12,NZ,1613452061
170,dicabisagan,17.0818,122.4157,24.65,72,82,2.48,PH,1613452061
171,santiago del estero,-27.7951,-64.2615,24.59,55,93,4.22,AR,1613452061
172,granadilla de abona,28.1188,-16.576,22.22,28,0,4.63,ES,1613452062
173,chuy,-33.6971,-53.4616,19.49,96,93,3.69,UY,1613452062
174,poum,-20.2333,164.0167,27.85,71,8,3.04,NC,1613452062
175,butaritari,3.0707,172.7902,26.69,78,34,6.63,KI,1613452063
176,inirida,3.8653,-67.9239,25.62,80,97,0.67,CO,1613452063
177,bonthe,7.5264,-12.505,25.46,90,63,2.08,SL,1613452063
178,aklavik,68.2191,-135.0107,-22.0,77,100,1.54,CA,1613452063
179,tizimin,21.15,-88.15,21.4,91,89,3.53,MX,1613452064
180,sibolga,1.7427,98.7792,30.92,54,65,2.13,ID,1613452064
181,sao joao da barra,-21.6403,-41.0511,24.44,91,100,6.11,BR,1613452065
182,acarau,-2.8856,-40.12,25.91,85,100,2.81,BR,1613452065
183,tamandare,-8.7597,-35.1047,25.14,85,49,1.52,BR,1613452066
184,ribeira grande,38.5167,-28.7,14.06,65,58,7.35,PT,1613452066
185,madison,34.7334,-86.5667,-5.56,93,90,5.66,US,1613452066
186,kathmandu,27.7167,85.3167,17.0,51,20,1.03,NP,1613451788
187,narsaq,60.9167,-46.05,-7.0,49,90,4.12,GL,1613452067
188,upernavik,72.7868,-56.1549,-20.56,90,100,2.52,GL,1613452067
189,asfi,32.2994,-9.2372,15.79,67,39,3.18,MA,1613452067
190,miracema do tocantins,-9.5618,-48.3967,21.48,94,99,0.42,BR,1613452068
191,egelsbach,49.9711,8.6703,3.33,93,75,1.54,DE,1613452068
192,hofn,64.2539,-15.2082,6.69,87,100,7.13,IS,1613451787
193,tomatlan,19.9333,-105.25,14.68,87,1,1.46,MX,1613452068
194,berlevag,70.8578,29.0864,-6.0,73,75,5.14,NO,1613452069
195,kenai,60.5544,-151.2583,-5.0,79,90,4.63,US,1613451809
196,olafsvik,64.8945,-23.7142,4.72,88,100,3.8,IS,1613452069
197,barrow,71.2906,-156.7887,-24.0,77,90,4.63,US,1613451857
198,port lincoln,-34.7333,135.8667,27.6,37,25,4.57,AU,1613452071
199,alvand,36.3187,49.1678,6.58,57,30,3.08,IR,1613452071
200,solenzo,12.1833,-4.0833,24.49,18,0,1.82,BF,1613452071
201,baruun-urt,46.6806,113.2792,-21.39,82,6,4.25,MN,1613452072
202,provideniya,64.3833,-173.3,-16.0,66,0,9.0,RU,1613452072
203,gobabis,-22.45,18.9667,16.61,41,27,1.72,NA,1613452072
204,palmer,42.1584,-72.3287,-0.56,100,90,1.54,US,1613452072
205,vostok,46.4856,135.8833,-15.36,95,100,6.41,RU,1613452073
206,vila franca do campo,37.7167,-25.4333,13.0,71,40,6.17,PT,1613452073
207,ambilobe,-13.2,49.05,26.91,83,61,1.34,MG,1613452073
208,nabire,-3.3667,135.4833,24.21,89,100,2.0,ID,1613452074
209,albanel,48.8832,-72.4487,-11.0,85,100,3.6,CA,1613451875
210,santo augusto,-27.8508,-53.7772,16.78,95,0,1.97,BR,1613452074
211,clonakilty,51.6231,-8.8706,8.33,93,75,8.75,IE,1613452074
212,grindavik,63.8424,-22.4338,3.0,81,75,7.2,IS,1613452075
213,fortuna,40.5982,-124.1573,8.33,100,75,2.08,US,1613452028
214,olhao,37.0286,-7.8411,13.0,94,20,4.12,PT,1613452075
215,mandera,3.9366,41.867,24.73,61,1,3.83,KE,1613452075
216,puerto del rosario,28.5004,-13.8627,18.0,82,0,3.6,ES,1613452076
217,severo-kurilsk,50.6789,156.125,-2.05,94,100,12.89,RU,1613452076
218,kaitangata,-46.2817,169.8464,14.44,52,7,3.58,NZ,1613452076
219,bereda,43.2686,-7.5406,14.0,77,75,10.8,ES,1613452077
220,antalaha,-14.9003,50.2788,26.62,81,95,1.18,MG,1613452077
221,wanaka,-44.7,169.15,14.69,51,67,2.06,NZ,1613452077
222,murgab,37.4966,61.9714,7.0,57,0,2.06,TM,1613452077
223,avarua,-21.2078,-159.775,29.0,70,6,2.57,CK,1613452078
224,klaksvik,62.2266,-6.589,6.0,100,75,7.72,FO,1613452078
225,amarante do maranhao,-5.5667,-46.7422,22.12,98,100,1.06,BR,1613452078
226,obo,5.3998,26.4869,19.43,32,97,1.45,CF,1613452079
227,praia da vitoria,38.7333,-27.0667,13.0,76,20,4.41,PT,1613452079
228,yulara,-25.2406,130.9889,34.0,10,5,4.12,AU,1613452079
229,mount gambier,-37.8333,140.7667,33.0,19,27,6.17,AU,1613452081
230,pisco,-13.7,-76.2167,21.11,78,0,2.06,PE,1613452081
231,jiexiu,37.0244,111.9125,6.77,45,0,4.81,CN,1613452081
232,masuguru,-11.3667,38.4167,24.9,89,94,2.71,TZ,1613452082
233,samokov,42.3333,23.55,-6.0,73,90,3.6,BG,1613452082
234,port arthur,38.8,121.2667,-4.0,54,20,6.0,CN,1613451908
235,nago,26.5881,127.9761,20.0,49,1,3.6,JP,1613451929
236,kahului,20.8947,-156.47,24.0,73,20,2.57,US,1613452083
237,noumea,-22.2763,166.4572,30.56,70,91,3.09,NC,1613451834
238,guerrero negro,27.9769,-114.0611,14.18,84,2,5.16,MX,1613452083
239,kavieng,-2.5744,150.7967,29.86,66,77,3.62,PG,1613452084
240,paita,-5.0892,-81.1144,24.03,75,31,4.3,PE,1613452084
241,san jose,37.3394,-121.895,12.0,76,40,4.12,US,1613452021
242,tandalti,13.0167,31.8667,22.06,23,0,5.24,SD,1613452085
243,hasaki,35.7333,140.8333,15.0,38,40,6.69,JP,1613452085
244,saint-augustin,51.226,-58.6502,-17.46,89,26,2.95,CA,1613452085
245,radhanpur,23.8333,71.6,24.68,51,0,1.7,IN,1613452086
246,richards bay,-28.783,32.0377,21.46,78,100,8.48,ZA,1613452086
247,novikovo,51.1537,37.8879,-19.72,91,79,1.86,RU,1613452086
248,sao sebastiao,-23.76,-45.4097,23.52,80,0,2.05,BR,1613452087
249,nushki,29.5542,66.0215,16.8,24,0,0.79,PK,1613452087
250,bam,29.106,58.357,18.73,22,0,0.36,IR,1613452087
251,carsamba,41.1989,36.7219,0.0,93,90,3.73,TR,1613452087
252,kedrovyy,56.1667,91.8167,-7.0,86,100,2.0,RU,1613452088
253,saint anthony,45.0205,-93.218,-22.0,64,1,1.18,US,1613452088
254,mogadishu,2.0371,45.3438,25.0,69,40,3.6,SO,1613452088
255,lamu,-2.2717,40.902,25.68,80,74,4.59,KE,1613452089
256,vao,-22.6667,167.4833,26.34,81,88,5.58,NC,1613452089
257,kaduqli,11.0167,29.7167,22.5,20,18,3.85,SD,1613452089
258,leningradskiy,69.3833,178.4167,-26.27,86,0,0.92,RU,1613452089
259,beni suef,29.0731,31.0979,9.64,80,0,2.62,EG,1613452090
260,vanimo,-2.6741,141.3028,27.26,84,86,7.73,PG,1613452090
261,calvinia,-31.4707,19.776,11.49,55,0,4.99,ZA,1613452090
262,knoxville,35.9606,-83.9207,7.0,93,90,4.12,US,1613451901
263,ust-kut,56.7938,105.7672,-21.11,82,74,1.65,RU,1613452091
264,lavrentiya,65.5833,-171.0,-26.28,85,0,4.83,RU,1613452091
265,northam,51.0333,-4.2167,8.89,94,100,4.92,GB,1613452091
266,xuddur,4.1213,43.8894,21.43,76,28,8.97,SO,1613452092
267,estelle,29.8458,-90.1067,-1.67,74,90,6.17,US,1613452092
268,mongo,12.1844,18.693,18.98,24,0,3.2,TD,1613452092
269,nadym,65.5333,72.5167,-28.2,88,99,3.81,RU,1613452093
270,clyde river,70.4692,-68.5914,-32.0,75,0,2.47,CA,1613452093
271,itaituba,-4.2761,-55.9836,24.0,100,90,1.01,BR,1613452093
272,nyandoma,61.669,40.1991,-22.88,92,95,1.33,RU,1613452045
273,jacareacanga,-6.2222,-57.7528,22.01,98,100,1.12,BR,1613452094
274,awbari,26.5921,12.7805,2.5,79,0,4.5,LY,1613452094
275,anton lizardo,19.05,-95.9833,17.78,77,75,5.14,MX,1613452094
276,tuatapere,-46.1333,167.6833,13.89,62,0,5.36,NZ,1613452095
277,kawalu,-7.3817,108.2082,31.86,58,43,0.67,ID,1613452095
278,pangnirtung,66.1451,-65.7125,-29.12,72,6,0.27,CA,1613452096
279,luxeuil-les-bains,47.8171,6.365,2.0,93,0,1.54,FR,1613452096
280,yumen,40.2833,97.2,6.2,48,0,6.05,CN,1613452096
281,dubai,25.2582,55.3047,18.0,88,0,2.06,AE,1613452096
282,kemptville,45.0168,-75.641,-7.0,86,100,1.03,CA,1613452097
283,lagoa,39.05,-27.9833,13.61,70,58,9.18,PT,1613452097
284,alice springs,-23.7,133.8833,35.0,16,0,5.66,AU,1613452097
285,jensen beach,27.2545,-80.2298,25.0,78,40,3.6,US,1613452098
286,sola,-13.8833,167.55,28.24,82,66,7.3,VU,1613452098
287,maarianhamina,60.0973,19.9348,-2.0,59,0,2.06,AX,1613452098
288,zhuhai,22.2769,113.5678,27.22,64,20,2.06,CN,1613452098
289,yerbogachen,61.2767,108.0108,-28.61,85,91,2.79,RU,1613452099
290,yarmouth,41.7057,-70.2286,3.33,93,90,3.6,US,1613451877
291,pingliang,35.5392,106.6861,8.84,38,96,6.28,CN,1613452099
292,solnechnyy,50.7214,136.6319,-14.75,91,100,10.17,RU,1613452100
293,hamilton,39.1834,-84.5333,-8.0,86,90,5.14,US,1613451974
294,nanchang,28.6833,115.8833,12.7,81,100,1.79,CN,1613452100
295,vorontsovka,50.6132,40.3549,-15.24,92,79,1.86,RU,1613452100
296,chibuto,-24.6867,33.5306,24.57,89,87,8.46,MZ,1613452087
297,rosarito,32.3333,-117.0333,12.78,76,75,2.06,MX,1613452101
298,rorvik,64.8621,11.2373,-2.82,87,99,5.43,NO,1613452101
299,labuhan,-6.8844,112.2051,28.83,75,51,3.68,ID,1613452102
300,kanniyakumari,8.0833,77.5667,27.91,66,10,6.13,IN,1613452102
301,isangel,-19.55,169.2667,30.0,79,75,2.41,VU,1613452103
302,bandarbeyla,9.4942,50.8122,25.03,65,32,4.97,SO,1613452103
303,acapulco,16.8634,-99.8901,21.1,77,5,2.49,MX,1613452104
304,kirakira,-10.4544,161.9205,29.33,72,55,2.11,SB,1613452105
305,saint-pierre,-21.3393,55.4781,29.0,61,0,3.09,RE,1613452067
306,east london,-33.0153,27.9116,16.0,94,90,2.06,ZA,1613452089
307,gaoua,10.2992,-3.2508,26.03,54,41,4.13,BF,1613452105
308,anadyr,64.75,177.4833,-19.0,60,0,2.0,RU,1613452106
309,monrovia,6.3005,-10.7969,26.12,87,100,1.63,LR,1613452106
310,korla,41.7597,86.1469,5.32,56,0,3.31,CN,1613452107
311,sobolevo,54.4299,31.8996,-20.9,91,28,2.78,RU,1613452107
312,asau,46.4333,26.4,-8.33,66,20,1.01,RO,1613452107
313,makamba,-4.1348,29.804,18.23,88,100,0.47,BI,1613452107
314,gualeguaychu,-33.0094,-58.5172,21.67,77,27,7.6,AR,1613452108
315,naifaru,5.4444,73.3657,27.42,67,0,3.01,MV,1613452108
316,juneau,58.3019,-134.4197,-4.0,54,20,2.57,US,1613452010
317,cervo,43.6702,-7.4101,12.66,73,100,4.44,ES,1613452109
318,shivrajpur,22.4167,73.65,23.0,60,0,1.54,IN,1613452109
319,george town,5.4112,100.3354,31.0,51,20,2.06,MY,1613452109
320,cantanhede,-3.6333,-44.3767,22.93,98,100,1.1,BR,1613452109
321,tura,25.5198,90.2201,26.9,19,0,1.63,IN,1613452110
322,gimbi,9.1667,35.8333,17.19,37,94,0.71,ET,1613452110
323,lumphat,13.4878,106.9816,36.1,25,67,1.17,KH,1613452110
324,qasigiannguit,68.8193,-51.1922,-16.0,51,99,4.12,GL,1613452111
325,carbondale,37.7273,-89.2168,-15.56,78,90,5.66,US,1613451908
326,saldanha,-33.0117,17.9442,13.0,62,0,2.57,ZA,1613452111
327,lufilufi,-13.8745,-171.5986,31.0,70,75,2.06,WS,1613452111
328,bubaque,11.2833,-15.8333,25.12,68,87,3.71,GW,1613452112
329,new plymouth,-39.0667,174.0833,13.33,73,100,14.31,NZ,1613452112
330,stokmarknes,68.5646,14.9108,1.0,60,0,5.14,NO,1613452112
331,benicarlo,40.4165,0.4271,3.89,95,44,0.89,ES,1613452112
332,marathon,44.9,-89.7668,-18.0,60,1,4.12,US,1613452113
333,rostovka,55.3842,71.8891,-18.04,91,40,2.49,RU,1613452113
334,umm lajj,25.0213,37.2685,23.41,60,36,1.36,SA,1613452113
335,rudbar,30.15,62.6,18.59,24,0,0.42,AF,1613452114
336,ko samui,9.5357,99.9357,30.0,66,20,6.69,TH,1613452114
337,zhirnovsk,50.9845,44.7735,-21.0,90,0,1.3,RU,1613452115
338,bairiki,1.3292,172.9752,28.0,74,40,4.12,KI,1613452116
339,clyde,41.3042,-82.9752,-8.89,91,100,0.89,US,1613452116
340,quelimane,-17.8786,36.8883,25.0,94,75,1.54,MZ,1613452116
341,redwater,33.3582,-94.2544,-13.89,72,1,3.6,US,1613452117
342,lowestoft,52.4752,1.7516,7.78,97,100,4.02,GB,1613452117
343,diego de almagro,-26.3667,-70.05,13.05,68,0,0.37,CL,1613452117
344,bay roberts,47.5999,-53.2648,-4.44,73,99,2.24,CA,1613452118
345,meulaboh,4.1363,96.1285,30.84,61,78,2.64,ID,1613452118
346,lazaro cardenas,17.9583,-102.2,18.96,80,1,2.27,MX,1613452118
347,lodja,-3.4833,23.4333,21.92,97,100,0.76,CD,1613452118
348,evanston,42.0411,-87.6901,-14.0,78,90,5.14,US,1613451842
349,padang,-0.9492,100.3543,30.0,74,20,3.09,ID,1613452119
350,yantal,56.8471,105.2542,-22.0,84,91,2.48,RU,1613452119
351,santa rita,-7.1139,-34.9781,25.0,100,75,3.09,BR,1613452120
352,dubbo,-32.25,148.6167,28.0,39,75,5.14,AU,1613452120
353,derzhavinsk,51.1,66.3167,-6.72,96,100,3.95,KZ,1613452120
354,constitucion,-35.3333,-72.4167,12.51,86,0,1.28,CL,1613452120
355,kralendijk,12.15,-68.2667,26.0,73,20,6.69,BQ,1613452121
356,walvis bay,-22.9575,14.5053,15.56,88,13,2.57,NA,1613452121
357,cap malheureux,-19.9842,57.6142,28.33,82,100,3.13,MU,1613452121
358,inskoy,54.4297,86.44,-1.83,93,100,5.74,RU,1613452122
359,margate,51.3813,1.3862,8.33,79,100,2.68,GB,1613452122
360,bukan,36.521,46.2089,8.45,53,0,2.87,IR,1613452122
361,kozhva,65.1073,57.0459,-26.96,88,100,2.76,RU,1613452123
362,kiboga,0.9161,31.7742,20.89,74,99,1.33,UG,1613452123
363,agalatovo,60.2195,30.2739,-4.44,79,100,3.6,RU,1613452123
364,wanning,18.8003,110.3967,23.47,65,75,2.75,CN,1613452124
365,tuy hoa,13.0833,109.3,23.89,68,33,3.19,VN,1613452124
366,te anau,-45.4167,167.7167,16.92,36,0,2.05,NZ,1613452124
367,mangrol,21.1167,70.1167,23.21,58,0,3.25,IN,1613452086
368,pinhao,-25.6956,-51.6597,14.05,90,0,0.43,BR,1613452125
369,sorland,67.667,12.6934,2.33,82,0,6.36,NO,1613452122
370,kontagora,10.3999,5.4695,23.8,17,0,3.52,NG,1613452125
371,pecos,31.4229,-103.4932,-12.0,85,90,2.06,US,1613452126
372,russell,32.3502,-85.1999,5.0,87,90,3.6,US,1613452126
373,ouallam,14.3188,2.0866,23.69,18,0,5.11,NE,1613452126
374,norman wells,65.282,-126.8329,-23.0,77,75,2.57,CA,1613452127
375,grand gaube,-20.0064,57.6608,28.33,82,99,3.13,MU,1613451982
376,sangar,63.9242,127.4739,-25.7,87,100,2.96,RU,1613452127
377,ornskoldsvik,63.2909,18.7153,-7.0,93,90,3.09,SE,1613452128
378,beidao,34.5686,105.8933,10.37,36,6,2.74,CN,1613451909
379,qaqortoq,60.7167,-46.0333,-7.0,49,90,4.12,GL,1613452128
380,baneh,35.9975,45.8853,8.48,54,1,4.41,IR,1613452128
381,san carlos,9.6612,-68.5827,24.1,71,100,1.6,VE,1613452129
382,hervey bay,-25.2986,152.8535,28.33,57,20,4.02,AU,1613452129
383,chara,56.9064,118.2631,-26.52,78,68,1.01,RU,1613452129
384,khandbari,27.3747,87.2039,20.99,31,2,1.66,NP,1613452130
385,george,-33.963,22.4617,15.0,94,20,1.54,ZA,1613452130
386,longyearbyen,78.2186,15.6401,1.0,64,75,5.66,SJ,1613452130
387,indian head,38.6001,-77.1622,2.22,93,90,3.61,US,1613452131
388,cottonwood,34.7392,-112.0099,7.78,47,63,1.57,US,1613452131
389,beisfjord,68.3751,17.5988,-14.0,92,0,1.03,NO,1613452131
390,kruisfontein,-34.0033,24.7314,15.0,96,78,0.45,ZA,1613452132
391,mombetsu,44.3525,143.3525,2.0,75,75,14.4,JP,1613452132
392,presidencia roque saenz pena,-26.7852,-60.4388,24.44,68,26,0.89,AR,1613452132
393,skjervoy,70.0311,20.9714,-4.0,86,20,5.14,NO,1613452132
394,middletown,39.5151,-84.3983,-8.0,92,90,5.66,US,1613452133
395,ndende,-2.4008,11.3581,22.7,95,100,0.71,GA,1613452133
396,rio gallegos,-51.6226,-69.2181,10.0,40,0,2.06,AR,1613452121
397,sao filipe,14.8961,-24.4956,21.65,75,23,2.7,CV,1613452134
398,ossora,59.2353,163.0719,-13.87,90,100,0.86,RU,1613452126
399,poso,-1.3959,120.7524,30.04,64,34,2.08,ID,1613452134
400,puerto leguizamo,-0.1934,-74.7819,24.63,72,100,1.11,CO,1613452135
401,birjand,32.8663,59.2211,2.0,15,0,3.09,IR,1613452135
402,muroto,33.2833,134.15,12.0,37,20,4.63,JP,1613452132
403,jumla,29.2747,82.1838,10.72,35,0,1.82,NP,1613452133
404,makakilo city,21.3469,-158.0858,25.0,78,20,3.09,US,1613452136
405,marzuq,14.4,46.4667,20.94,24,0,0.75,YE,1613452137
406,dawei,14.0833,98.2,31.06,45,0,2.99,MM,1613452086
407,alta floresta,-9.8756,-56.0861,21.69,99,100,1.56,BR,1613452137
408,robertsport,6.7533,-11.3686,26.5,86,91,1.11,LR,1613452138
409,dingle,10.9995,122.6711,28.18,75,78,4.96,PH,1613452138
410,byron bay,-28.65,153.6167,23.0,83,75,7.72,AU,1613451900
411,harper,4.375,-7.7169,25.56,88,100,0.68,LR,1613452138
412,nyrob,60.733,56.7202,-29.97,87,79,0.38,RU,1613452139
413,batalha,-9.6778,-37.1247,23.42,84,88,1.52,BR,1613452139
414,abong mbang,3.9833,13.1833,19.24,98,99,1.17,CM,1613452139
415,thenzawl,23.3167,92.75,23.0,40,0,1.54,IN,1613452140
416,kutum,14.2,24.6667,13.9,34,7,1.66,SD,1613452140
417,ayacucho,-13.1583,-74.2239,12.08,57,84,2.3,PE,1613452140
418,shaunavon,49.6501,-108.4181,-16.0,72,100,5.66,CA,1613452141
419,pimentel,-6.8367,-79.9342,22.22,83,21,1.34,PE,1613452141
420,nuuk,64.1835,-51.7216,-11.0,62,75,6.17,GL,1613452140
421,pilar,-9.5972,-35.9567,24.0,94,0,1.03,BR,1613452142
422,khairagarh,26.95,77.8167,24.0,43,20,2.06,IN,1613452142
423,sterling,39.0062,-77.4286,2.0,93,90,4.01,US,1613452106
424,roccastrada,43.0099,11.1665,2.22,93,40,1.54,IT,1613452143
425,trojes,41.756,19.962,-5.0,86,0,2.06,AL,1613452143
426,ivanava,52.1451,25.5365,-16.43,95,81,0.85,BY,1613452143
427,biak,-0.9131,122.8766,28.97,65,80,0.68,ID,1613452144
428,panacan,9.2463,118.4082,32.0,55,20,6.17,PH,1613452144
429,leopold,-38.1833,144.4667,29.0,42,100,8.23,AU,1613452144
430,zapolyarnyy,69.4154,30.8136,-13.0,92,75,3.09,RU,1613452144
431,itarema,-2.9248,-39.9167,25.74,86,100,2.48,BR,1613452145
432,banjar,-8.19,114.9675,31.0,70,20,3.09,ID,1613452145
433,zhigansk,66.7697,123.3711,-27.2,86,100,6.35,RU,1613452145
434,labytnangi,66.6572,66.4183,-27.63,83,100,3.01,RU,1613452146
435,kungurtug,50.5994,97.5228,-4.79,91,43,0.62,RU,1613452146
436,haines junction,60.7522,-137.5108,-32.0,68,7,0.62,CA,1613452146
437,la rioja,42.25,-2.5,8.0,93,90,4.63,ES,1613452147
438,ucluelet,48.9329,-125.5528,6.67,88,89,0.89,CA,1613452051
439,salinopolis,-0.6136,-47.3561,25.28,88,98,5.36,BR,1613452147
440,pauini,-7.7136,-66.9764,23.96,91,93,1.1,BR,1613452148
441,popondetta,-8.7537,148.2534,30.83,64,100,2.9,PG,1613452148
442,le port,-20.9373,55.2919,23.0,94,90,4.12,RE,1613452148
443,keti bandar,24.1447,67.4497,25.05,56,0,3.99,PK,1613452149
444,goderich,43.7501,-81.7165,-11.0,85,100,7.2,CA,1613452149
445,henties bay,-22.116,14.2845,15.56,87,41,0.45,NA,1613452149
446,shahr-e babak,30.1165,55.1186,10.84,35,0,2.73,IR,1613452149
447,aki,33.5,133.9,12.0,37,20,4.63,JP,1613452150
448,tessalit,20.1986,1.0114,18.89,22,58,4.95,ML,1613452111
449,skerries,53.5828,-6.1083,9.44,76,20,7.72,IE,1613452151
450,saint-joseph,-21.3667,55.6167,29.0,61,0,3.09,RE,1613452125
451,tarko-sale,64.9225,77.785,-24.44,81,100,3.62,RU,1613452151
452,vila,42.0304,-8.1588,11.67,80,99,8.05,PT,1613452151
453,port augusta,-32.5,137.7667,35.56,20,0,4.63,AU,1613452152
454,avera,33.194,-82.5271,16.0,88,90,7.04,US,1613452133
455,inuvik,68.3499,-133.7218,-22.0,77,100,1.54,CA,1613452152
456,waingapu,-9.6567,120.2641,30.16,63,57,3.63,ID,1613452153
457,kichera,55.9375,110.0997,-22.15,79,18,0.48,RU,1613452153
458,ouargaye,11.5033,0.0572,23.82,19,0,3.89,BF,1613452153
459,maldaeni,44.1167,24.9333,-3.53,88,88,3.1,RO,1613452154
460,hualmay,-11.0964,-77.6139,22.2,74,40,2.62,PE,1613452154
461,kushima,31.4583,131.2333,14.0,43,20,7.72,JP,1613452154
462,saint-georges,12.0564,-61.7485,25.0,78,20,9.26,GD,1613452155
463,pingxiang,27.6167,113.85,11.99,90,100,1.87,CN,1613452155
464,tilichiki,60.4667,166.1,-22.1,89,1,3.59,RU,1613452155
465,ust-maya,60.4167,134.5333,-22.68,87,83,1.62,RU,1613452156
466,cimitarra,6.3142,-73.9497,23.45,88,100,1.54,CO,1613452156
467,kuminskiy,58.6667,66.5667,-20.53,90,19,3.05,RU,1613452156
468,komsomolskiy,40.4272,71.7189,10.0,40,46,1.03,UZ,1613452131
469,cayenne,4.9333,-52.3333,26.0,78,90,4.12,GF,1613452016
470,zhangjiakou,40.81,114.8794,-9.18,55,0,10.12,CN,1613452157
471,xiaolingwei,32.0333,118.85,14.44,44,77,3.0,CN,1613452157
472,namtsy,62.7161,129.6658,-29.0,69,69,1.0,RU,1613452157
473,traiguen,-38.25,-72.6833,8.8,87,0,1.33,CL,1613452158
474,lata,40.1629,-8.3327,13.89,81,100,0.45,PT,1613452139
475,bardiyah,31.7561,25.0865,9.47,67,68,9.1,LY,1613452158
476,necochea,-38.5473,-58.7368,16.11,98,100,3.13,AR,1613452112
477,nantucket,41.2835,-70.0995,3.33,100,90,5.14,US,1613452159
478,beringovskiy,63.05,179.3167,-22.38,89,100,6.7,RU,1613452121
479,ulladulla,-35.35,150.4667,22.0,73,75,6.69,AU,1613452159
480,ostrovnoy,68.0531,39.5131,-17.46,91,100,2.55,RU,1613452150
481,dingli,35.8614,14.3822,7.22,57,40,4.12,MT,1613452160
482,auki,-8.7676,160.7034,29.11,71,81,2.39,SB,1613452160
483,macas,-2.3167,-78.1167,20.18,79,99,1.06,EC,1613452161
484,san cristobal,7.7669,-72.225,19.48,87,99,1.06,VE,1613452161
485,khartoum,15.5518,32.5324,25.0,18,0,4.63,SD,1613452161
486,kuah,6.3265,99.8432,32.0,51,20,1.54,MY,1613452162
487,yerofey pavlovich,53.9667,121.9667,-19.42,82,99,2.4,RU,1613452162
488,bull savanna,17.8868,-77.5902,22.88,89,6,4.58,JM,1613452117
489,shiyan,32.6475,110.7781,16.79,27,81,4.15,CN,1613452163
490,tamala,52.541,43.2515,-25.42,90,0,0.84,RU,1613452163
491,lulea,65.5842,22.1547,-15.0,92,0,3.6,SE,1613452163
492,namatanai,-3.6667,152.4333,29.27,72,80,3.78,PG,1613452160
493,santa cruz de tenerife,28.4682,-16.2546,19.44,44,90,4.12,ES,1613452164
494,oksfjord,70.2396,22.3479,-7.0,85,0,2.06,NO,1613452164
495,sayyan,15.1718,44.3244,13.42,34,0,1.13,YE,1613452141
496,ojinaga,29.5667,-104.4167,0.0,86,1,1.54,MX,1613452165
497,ketchikan,55.3422,-131.6461,1.0,93,90,1.54,US,1613452165
498,along,28.1667,94.7667,24.63,36,66,0.66,IN,1613452166
499,petropavl,54.8753,69.1628,-15.0,85,40,1.55,KZ,1613452067
500,segovia,41.1667,-4.0,3.33,91,48,3.05,ES,1613452166
501,bozdar,27.1828,68.636,19.0,77,0,2.25,PK,1613452167
502,san andres,12.5847,-81.7006,27.0,78,20,5.14,CO,1613452038
503,tornio,65.8481,24.1466,-15.0,92,0,3.6,FI,1613452167
504,ankazobe,-18.3167,47.1167,20.0,88,75,3.09,MG,1613452168
505,campeche,19.0,-90.5,21.76,84,83,1.42,MX,1613451929
506,kokstad,-30.5472,29.4241,9.53,88,93,2.35,ZA,1613452168
507,lagunas,-5.2269,-75.6753,24.14,90,100,0.63,PE,1613452169
508,altay,47.8667,88.1167,-3.18,82,13,0.53,CN,1613452169
509,guaratinga,-16.5667,-39.5667,25.0,78,40,3.09,BR,1613452169
510,peniche,39.3558,-9.3811,15.0,86,100,5.81,PT,1613452041
511,sovetskiy,61.3614,63.5842,-27.46,88,87,0.39,RU,1613452170
512,tiruchchendur,8.4833,78.1167,29.0,65,20,3.09,IN,1613452170
513,dabat,12.9842,37.765,15.33,44,2,2.18,ET,1613452171
514,launceston,-41.45,147.1667,25.0,41,75,3.09,AU,1613452171
515,sabang,5.8933,95.3214,28.33,74,28,8.38,ID,1613452171
516,yarada,17.65,83.2667,29.0,45,0,3.6,IN,1613452171
517,marsa matruh,31.3525,27.2453,9.0,76,40,7.72,EG,1613452147
518,havre-saint-pierre,50.2334,-63.5986,-14.0,61,1,3.09,CA,1613452172
519,hambantota,6.1241,81.1185,29.0,74,0,3.6,LK,1613452172
520,araouane,18.9048,-3.5265,19.12,26,74,6.29,ML,1613452165
521,aranos,-24.1333,19.1167,17.71,35,23,4.14,NA,1613452173
522,brae,60.3964,-1.353,7.0,100,90,11.32,GB,1613452173
523,marsh harbour,26.5412,-77.0636,23.95,87,0,6.7,BS,1613452173
524,kingsport,36.5484,-82.5618,9.44,87,90,5.66,US,1613451960
525,oliveira dos brejinhos,-12.3169,-42.8961,21.9,92,100,0.05,BR,1613452174
526,basco,20.4487,121.9702,22.47,76,76,8.61,PH,1613452174
527,la libertad,-2.2333,-80.9,25.02,83,100,3.51,EC,1613452163
528,zeya,53.75,127.2667,-17.31,84,68,3.96,RU,1613452119
529,bundi,25.4417,75.6417,23.0,38,47,1.03,IN,1613452175
530,kautokeino,69.0125,23.0412,-15.17,94,36,1.15,NO,1613452176
531,port hardy,50.6996,-127.4199,5.0,100,90,2.06,CA,1613452176
532,sheridan,44.8333,-106.9173,-9.44,78,1,0.57,US,1613451990
533,olga,43.7444,135.2892,-11.09,81,100,8.7,RU,1613452177
534,myitkyina,25.3833,97.4,29.4,29,5,1.0,MM,1613452177
535,ceres,37.5949,-120.9577,11.67,76,90,5.14,US,1613452177
536,lethem,3.3803,-59.7968,24.08,72,21,4.97,GY,1613452137
537,puerto concordia,2.6221,-72.7572,24.66,71,85,1.15,CO,1613452178
538,fort nelson,58.8053,-122.7002,-20.0,77,75,1.03,CA,1613452152
539,ulaangom,49.9811,92.0667,-17.1,90,52,0.8,MN,1613452179
540,orlik,52.5178,99.825,-7.67,89,95,1.11,RU,1613452157
541,kushmurun,52.4503,64.6311,-14.24,91,100,4.54,KZ,1613452179
542,kwinana,-32.25,115.7667,28.89,65,0,7.2,AU,1613452043
543,yuryuzan,54.8633,58.4219,-20.86,86,82,3.21,RU,1613452180
544,paamiut,61.994,-49.6678,-12.04,81,51,5.61,GL,1613452115
545,adet,11.2644,37.4888,17.61,53,40,1.53,ET,1613452181
546,kaeo,-35.1,173.7833,22.78,80,77,4.02,NZ,1613452181
547,arica,-18.475,-70.3042,20.0,77,0,1.03,CL,1613452079
548,waspan,14.7419,-83.9717,23.1,95,0,2.06,NI,1613452182
549,tahta,26.7693,31.5021,10.0,57,0,3.09,EG,1613452182
550,sitka,57.0531,-135.33,-1.0,64,20,2.57,US,1613452167
551,nyurba,63.2842,118.3319,-25.56,88,100,3.85,RU,1613452173
552,tawang,27.5833,91.8667,7.79,53,8,3.13,IN,1613452183
553,ewa beach,21.3156,-158.0072,25.0,78,20,3.09,US,1613452119
554,bowen,-20.0167,148.2333,28.0,69,90,7.2,AU,1613452174
555,mujiayingzi,42.1167,118.7833,-12.81,61,0,10.39,CN,1613452184
556,simeykyne,48.3264,39.5337,-10.01,88,18,3.39,UA,1613452184
557,candido mendes,-1.4467,-45.7167,23.8,97,100,1.55,BR,1613452184
558,vysokogornyy,50.1167,139.15,-9.83,93,100,12.2,RU,1613452185
559,abonnema,4.7084,6.7931,26.12,89,37,0.98,NG,1613452185
560,channel-port aux basques,47.5702,-59.1367,-4.59,93,99,6.92,CA,1613452185
561,santa marta,11.2408,-74.199,28.89,60,47,8.49,CO,1613452139
562,tezu,27.9167,96.1667,27.71,17,0,1.83,IN,1613452150
563,dali,25.7,100.1833,16.88,31,1,1.55,CN,1613452186
564,igbon,11.2142,123.1655,26.82,76,78,6.56,PH,1613452186
565,klyuchi,52.2667,79.1667,-1.57,96,94,5.32,RU,1613452186
566,eravur,7.7733,81.6095,26.93,68,58,2.1,LK,1613452187
567,mwinilunga,-11.7358,24.4293,16.23,83,100,1.22,ZM,1613452187
568,payyannur,12.1,75.2,30.67,51,8,1.65,IN,1613452187
569,olinda,-8.0089,-34.8553,26.0,78,40,3.09,BR,1613452188
570,beroroha,-21.6667,45.1667,22.46,93,100,2.32,MG,1613452188
571,muyezerskiy,63.9333,31.65,-19.88,92,100,3.07,RU,1613452188
572,pryazha,61.6926,33.6216,-13.0,85,99,5.0,RU,1613452188
573,alegrete,-29.7831,-55.7919,18.56,87,0,3.85,BR,1613452189
574,cowra,-33.8333,148.6833,28.89,42,51,3.58,AU,1613452189
575,sao gabriel da cachoeira,-0.1303,-67.0892,23.73,93,82,0.42,BR,1613452172
576,kapoeta,4.7717,33.5903,29.78,30,65,10.41,SS,1613452190
577,kankon,15.0167,74.0167,25.0,83,20,2.57,IN,1613452190
578,vestmannaeyjar,63.4427,-20.2734,6.32,78,43,3.82,IS,1613452153
579,los angeles,34.0522,-118.2437,14.0,67,1,2.77,US,1613452186
