,City,Latitude,Longitude,Max Temp,Humidity,Cloudiness,Wind Speed,Country,Date
0,ust-maya,60.4167,134.5333,248.89,87,76,1.02,RU,1613440974
1,tuktoyaktuk,69.4541,-133.0374,245.15,76,75,1.54,CA,1613440975
2,albany,42.6001,-73.9662,270.37,75,100,0.5,US,1613440832
3,qaanaaq,77.484,-69.3632,251.4,85,69,0.49,GL,1613440975
4,vaini,-21.2,-175.2,304.15,66,40,2.57,TO,1613440975
5,rikitea,-23.1203,-134.9692,299.83,78,0,5.3,PF,1613440976
6,gaoual,11.75,-13.2,295.21,57,98,1.3,GN,1613440976
7,geraldton,-28.7667,114.6,298.15,78,0,5.66,AU,1613440976
8,arraial do cabo,-22.9661,-42.0278,298.21,87,50,2.91,BR,1613440977
9,ampanihy,-24.7,44.75,297.01,82,100,2.59,MG,1613440977
10,kitob,39.0843,66.8332,285.15,28,71,4.12,UZ,1613440977
11,cape town,-33.9258,18.4232,291.48,55,0,8.75,ZA,1613440489
12,new norfolk,-42.7826,147.0587,297.59,47,11,1.34,AU,1613440979
13,saint george,37.1041,-113.5841,284.26,30,20,2.06,US,1613440861
14,dikson,73.5069,80.5464,239.91,80,16,4.16,RU,1613440979
15,kaitangata,-46.2817,169.8464,287.04,53,49,3.58,NZ,1613440979
16,amga,60.8953,131.9608,246.33,85,33,1.07,RU,1613440980
17,shubarshi,48.5872,57.1869,261.77,94,100,3.0,KZ,1613440980
18,tasiilaq,65.6145,-37.6368,271.15,74,90,2.06,GL,1613440980
19,yellowknife,62.456,-114.3525,250.37,77,20,2.06,CA,1613440872
20,ushuaia,-54.8,-68.3,286.15,54,75,2.57,AR,1613440981
21,ishigaki,24.3448,124.1572,294.15,52,20,6.69,JP,1613440981
22,te anau,-45.4167,167.7167,289.44,34,0,1.52,NZ,1613440981
23,jamestown,42.097,-79.2353,268.15,93,90,6.17,US,1613440919
24,bredasdorp,-34.5322,20.0403,288.15,88,72,5.0,ZA,1613440982
25,punta arenas,-53.15,-70.9167,286.15,54,75,6.69,CL,1613440906
26,khatanga,71.9667,102.5,239.8,82,0,4.07,RU,1613440983
27,gat,31.61,34.7642,285.37,79,91,2.14,IL,1613440983
28,college,64.8569,-147.8028,258.71,66,90,0.45,US,1613440983
29,georgetown,5.4112,100.3354,300.15,83,20,1.03,MY,1613440754
30,saint-philippe,-21.3585,55.7679,299.15,69,0,4.12,RE,1613440984
31,son la,21.3167,103.9,291.17,84,95,1.49,VN,1613440984
32,kapaa,22.0752,-159.319,299.82,73,40,5.66,US,1613440984
33,port hedland,-20.3167,118.5667,302.15,74,90,4.12,AU,1613440843
34,dongsheng,39.8161,109.9776,266.01,73,0,6.2,CN,1613440985
35,the valley,18.217,-63.0578,299.15,69,40,5.66,AI,1613440905
36,safranbolu,41.2508,32.6942,268.28,95,100,1.41,TR,1613440986
37,lokosovo,61.1333,74.8167,248.15,89,78,3.3,RU,1613440986
38,sola,-13.8833,167.55,301.46,81,100,6.25,VU,1613440986
39,mar del plata,-38.0023,-57.5575,293.71,94,90,2.57,AR,1613440800
40,dingle,10.9995,122.6711,299.98,77,58,5.42,PH,1613440987
41,ko samui,9.5357,99.9357,301.15,69,20,5.66,TH,1613440987
42,kloulklubed,7.0419,134.2556,299.15,94,90,3.6,PW,1613440988
43,east london,-33.0153,27.9116,292.67,69,38,4.05,ZA,1613440988
44,monze,-16.2833,27.4833,290.78,98,100,2.01,ZM,1613440988
45,hermanus,-34.4187,19.2345,289.26,83,6,2.24,ZA,1613440989
46,mitu,1.1983,-70.1733,296.44,94,99,0.88,CO,1613440989
47,sinjar,36.3209,41.8754,284.83,59,99,3.18,IQ,1613440991
48,busselton,-33.65,115.3333,297.81,63,2,3.72,AU,1613440960
49,port alfred,-33.5906,26.891,289.82,94,48,1.79,ZA,1613440991
50,praya,14.9215,-23.5087,295.15,56,75,8.23,CV,1613440992
51,hobart,-42.8794,147.3294,297.59,60,20,5.14,AU,1613440992
52,tezu,27.9167,96.1667,294.72,27,3,0.58,IN,1613440992
53,luba,3.4568,8.5547,299.15,100,20,1.54,GQ,1613440993
54,westport,41.1415,-73.3579,274.15,86,90,3.6,US,1613440993
55,garowe,8.4054,48.4845,290.45,91,47,3.95,SO,1613440993
56,kodiak,57.79,-152.4072,275.59,90,91,1.12,US,1613440994
57,kattivakkam,13.2167,80.3167,293.15,94,20,3.03,IN,1613440994
58,puerto ayora,-0.7393,-90.3518,298.71,91,53,1.55,EC,1613440994
59,narsaq,60.9167,-46.05,266.15,53,90,6.17,GL,1613440995
60,victoria,22.2855,114.1577,293.71,78,0,2.24,HK,1613440995
61,viedma,-40.8135,-62.9967,284.26,77,50,1.89,AR,1613440995
62,namibe,-15.1961,12.1522,295.34,81,45,3.19,AO,1613440996
63,san policarpo,12.1791,125.5072,300.25,75,32,6.07,PH,1613440996
64,atuona,-9.8,-139.0333,299.04,77,26,5.93,PF,1613440996
65,changtu,42.7788,124.0955,261.04,73,13,5.64,CN,1613440996
66,chokurdakh,70.6333,147.9167,246.33,87,89,1.6,RU,1613440997
67,nikolskoye,59.7035,30.7861,267.59,93,40,6.0,RU,1613440997
68,katsuura,35.1333,140.3,287.04,40,0,4.92,JP,1613440997
69,aykhal,66.0,111.5,240.68,83,0,1.82,RU,1613440998
70,bondoukou,8.0333,-2.8,297.1,82,49,3.25,CI,1613440998
71,altamira,-3.2033,-52.2064,295.64,98,100,1.17,BR,1613440999
72,broome,42.2506,-75.833,269.82,88,100,0.89,US,1613440999
73,faanui,-16.4833,-151.75,300.86,70,100,4.14,PF,1613440999
74,serebryansk,49.6925,83.2892,268.15,58,75,1.0,KZ,1613440999
75,tual,-5.6667,132.75,301.3,74,100,9.06,ID,1613441000
76,soderhamn,61.3037,17.0592,268.04,95,7,3.87,SE,1613441000
77,torbay,47.6666,-52.7314,269.26,74,90,2.06,CA,1613441001
78,smithers,54.7804,-127.1743,267.15,86,90,1.03,CA,1613441001
79,ailigandi,9.2333,-78.0167,299.35,87,87,4.42,PA,1613441001
80,hay river,60.8156,-115.7999,253.15,71,94,1.54,CA,1613440803
81,never,46.9896,3.159,278.15,81,0,4.63,FR,1613441002
82,hilo,19.7297,-155.09,299.15,65,90,6.17,US,1613441002
83,bethel,41.3712,-73.414,272.59,93,90,3.09,US,1613441002
84,kavieng,-2.5744,150.7967,302.91,67,96,3.32,PG,1613441003
85,carnarvon,-24.8667,113.6333,300.15,94,40,7.2,AU,1613440960
86,cherskiy,68.75,161.3,249.19,89,95,1.16,RU,1613441003
87,khorixas,-20.3667,14.9667,294.35,47,79,0.77,NA,1613441004
88,karratha,-20.7377,116.8463,303.8,59,18,2.3,AU,1613441004
89,palu,-0.8917,119.8707,304.7,51,54,0.64,ID,1613441004
90,bluff,-46.6,168.3333,288.71,55,0,1.79,NZ,1613441004
91,aban,56.67,96.06,260.18,96,100,2.24,RU,1613441005
92,saint-raymond,45.467,-73.6095,267.15,79,90,1.03,CA,1613441005
93,nova prata,-28.7839,-51.61,290.93,99,38,1.09,BR,1613441005
94,tolaga bay,-38.3667,178.3,292.6,94,100,2.17,NZ,1613441006
95,trairi,-3.2778,-39.2689,299.27,84,100,2.82,BR,1613441006
96,hithadhoo,-0.6,73.0833,301.09,69,0,0.95,MV,1613441006
97,airai,-8.9266,125.4092,295.39,76,100,1.87,TL,1613441006
98,isangel,-19.55,169.2667,303.81,67,100,3.34,VU,1613441007
99,mahebourg,-20.4081,57.7,298.15,94,75,1.54,MU,1613441007
100,provideniya,64.3833,-173.3,258.15,66,0,10.0,RU,1613441007
101,ixtapa,20.7,-105.2,294.15,68,90,1.54,MX,1613441008
102,poretskoye,55.1974,46.3291,246.67,89,53,2.79,RU,1613441008
103,kamaishi,39.2667,141.8833,273.15,74,75,7.2,JP,1613441008
104,castro,-24.7911,-50.0119,289.89,83,20,1.89,BR,1613441009
105,graaff-reinet,-32.2522,24.5308,283.15,93,22,2.13,ZA,1613441009
106,bondo,3.8146,23.6866,294.8,65,100,0.93,CD,1613441009
107,grand gaube,-20.0064,57.6608,297.59,92,100,1.34,MU,1613441010
108,sisimiut,66.9395,-53.6735,256.83,82,0,4.82,GL,1613441010
109,walvis bay,-22.9575,14.5053,289.26,82,1,1.03,NA,1613441010
110,klyuchi,52.2667,79.1667,268.49,96,100,4.47,RU,1613441011
111,guerrero negro,27.9769,-114.0611,287.9,76,47,4.81,MX,1613440991
112,loei,17.4167,101.5,290.15,100,0,0.88,TH,1613441011
113,nuuk,64.1835,-51.7216,262.15,62,20,5.66,GL,1613441012
114,diban,35.0365,40.5167,286.28,60,71,2.9,SY,1613441012
115,camargo,27.6667,-105.1667,286.27,40,100,1.88,MX,1613441012
116,cap malheureux,-19.9842,57.6142,297.59,92,100,1.34,MU,1613440866
117,avarua,-21.2078,-159.775,303.15,70,40,3.09,CK,1613441013
118,cozumel,20.5083,-86.9458,298.71,94,20,4.12,MX,1613441013
119,port hardy,50.6996,-127.4199,278.15,93,90,1.03,CA,1613441014
120,naze,28.3667,129.4833,288.15,58,20,5.14,JP,1613441014
121,tiksi,71.6872,128.8694,247.04,89,90,2.01,RU,1613441014
122,mezen,65.8522,44.24,245.23,86,30,2.54,RU,1613441014
123,ballina,-28.8667,153.5667,295.93,94,75,5.66,AU,1613441015
124,abu dhabi,24.4667,54.3667,290.15,94,40,1.03,AE,1613441015
125,pozo colorado,-23.4923,-58.7972,299.95,60,0,1.88,PY,1613441015
126,klaksvik,62.2266,-6.589,280.15,100,75,8.23,FO,1613441016
127,ribeira grande,38.5167,-28.7,287.21,64,47,6.43,PT,1613441016
128,yarmouth,41.7057,-70.2286,276.48,93,90,2.57,US,1613441016
129,atar,20.5169,-13.0499,293.8,23,52,7.94,MR,1613441016
130,cabo san lucas,22.8909,-109.9124,292.59,72,75,2.06,MX,1613441017
131,kavaratti,10.5669,72.642,300.16,62,8,1.8,IN,1613441017
132,harlingen,26.1906,-97.6961,272.04,83,0,0.45,US,1613440819
133,bambous virieux,-20.3428,57.7575,298.15,94,75,1.54,MU,1613441017
134,zhigansk,66.7697,123.3711,244.54,86,100,5.92,RU,1613441018
135,tieling,42.2931,123.8414,262.64,72,14,5.42,CN,1613441018
136,finote selam,10.7,37.2667,290.07,46,62,1.5,ET,1613440862
137,kitimat,54.0524,-128.6534,270.37,87,99,0.2,CA,1613441019
138,esperance,-33.8667,121.9,303.15,35,3,8.23,AU,1613441019
139,rajgarh,28.6333,75.3833,289.15,40,0,2.96,IN,1613441019
140,dulce grande,23.0,-102.1667,287.15,30,1,5.14,MX,1613441020
141,isla vista,34.4133,-119.861,289.82,72,1,7.02,US,1613440948
142,lorengau,-2.0226,147.2712,301.71,77,100,5.09,PG,1613441020
143,severo-kurilsk,50.6789,156.125,270.78,93,100,9.31,RU,1613441020
144,vardo,70.3705,31.1107,268.26,91,100,2.71,NO,1613441021
145,ambilobe,-13.2,49.05,296.25,95,100,1.23,MG,1613441021
146,pisco,-13.7,-76.2167,295.15,73,0,0.51,PE,1613441021
147,upernavik,72.7868,-56.1549,252.54,90,100,2.26,GL,1613441022
148,butaritari,3.0707,172.7902,299.62,79,4,6.12,KI,1613441022
149,ketchikan,55.3422,-131.6461,276.15,86,90,1.54,US,1613441022
150,andenes,69.3143,16.1194,273.15,86,0,6.17,NO,1613441023
151,pangnirtung,66.1451,-65.7125,245.26,73,26,0.47,CA,1613441023
152,nioro,13.35,-15.75,295.02,28,92,2.38,GM,1613441023
153,carpinteria,34.3989,-119.5185,289.26,75,100,3.58,US,1613441024
154,mataura,-46.1927,168.8643,288.71,55,11,1.79,NZ,1613441024
155,mahibadhoo,3.7833,72.9667,300.54,70,0,3.28,MV,1613441024
156,luanda,-8.8368,13.2343,298.15,83,20,1.03,AO,1613440344
157,guaymas,27.9333,-110.9,290.93,67,20,4.63,MX,1613441025
158,srbobran,45.5539,19.8028,271.01,83,100,0.76,RS,1613441025
159,iqaluit,63.7506,-68.5145,251.15,71,75,1.54,CA,1613440814
160,puerto del rosario,28.5004,-13.8627,292.15,77,75,3.6,ES,1613441026
161,allapalli,19.4167,80.0667,292.85,47,0,1.26,IN,1613441026
162,kruisfontein,-34.0033,24.7314,288.15,94,80,0.89,ZA,1613441027
163,abonnema,4.7084,6.7931,299.39,87,1,1.28,NG,1613440953
164,chebenki,51.9337,55.7077,250.15,84,0,1.0,RU,1613441027
165,churapcha,62.0025,132.4325,244.54,85,53,1.78,RU,1613441028
166,de aar,-30.6497,24.0123,283.86,62,0,9.14,ZA,1613441028
167,oistins,13.0667,-59.5333,298.15,65,20,8.75,BB,1613441028
168,kiama,-34.6833,150.8667,297.15,64,75,6.69,AU,1613441023
169,hasaki,35.7333,140.8333,285.93,37,20,4.12,JP,1613441029
170,chipinge,-20.1883,32.6236,292.02,100,100,2.47,ZW,1613441029
171,krylovskaya,46.3194,39.9711,267.04,96,100,3.98,RU,1613441029
172,manaure,11.7751,-72.4445,299.26,73,100,7.31,CO,1613441030
173,olafsvik,64.8945,-23.7142,277.48,90,100,6.49,IS,1613441030
174,slave lake,55.2834,-114.769,255.15,60,1,7.72,CA,1613441030
175,lakhnadon,22.6,79.6,291.33,36,16,0.66,IN,1613441030
176,salalah,17.0151,54.0924,292.15,48,0,1.03,OM,1613441031
177,ahipara,-35.1667,173.1667,292.98,87,98,5.73,NZ,1613441031
178,yatou,37.15,122.3833,272.86,92,25,8.87,CN,1613441031
179,lavrentiya,65.5833,-171.0,248.92,85,0,4.66,RU,1613441032
180,miandrivazo,-19.5167,45.4667,297.04,87,100,1.44,MG,1613441032
181,araouane,18.9048,-3.5265,293.88,24,18,7.28,ML,1613441032
182,buala,-8.145,159.5921,302.16,77,100,2.32,SB,1613441032
183,hokota,36.15,140.5167,285.93,25,20,8.23,JP,1613441033
184,coihaique,-45.5752,-72.0662,289.15,51,0,1.54,CL,1613441033
185,stornoway,58.2093,-6.3865,281.15,81,75,7.72,GB,1613441033
186,port elizabeth,-33.918,25.5701,290.15,88,75,2.57,ZA,1613441033
187,evinayong,1.4368,10.5512,293.44,97,100,1.55,GQ,1613441034
188,namatanai,-3.6667,152.4333,303.42,66,45,3.51,PG,1613441034
189,thompson,55.7435,-97.8558,253.15,84,20,1.08,CA,1613440803
190,lieksa,63.3167,30.0167,259.63,94,98,4.65,FI,1613441035
191,rio bueno,-40.3167,-72.9667,290.15,55,0,3.6,CL,1613440981
192,santo antonio do ica,-3.1022,-67.9397,297.19,94,65,0.71,BR,1613441035
193,quelimane,-17.8786,36.8883,298.55,84,100,2.83,MZ,1613440928
194,ciudad guayana,8.3533,-62.6528,296.9,76,100,3.57,VE,1613441036
195,korla,41.7597,86.1469,273.58,80,0,1.57,CN,1613441036
196,okhotsk,59.3833,143.3,257.21,84,0,2.84,RU,1613441036
197,bubaque,11.2833,-15.8333,298.59,70,100,4.71,GW,1613441037
198,wagga wagga,-35.1167,147.3667,300.93,50,40,4.12,AU,1613441037
199,richards bay,-28.783,32.0377,294.94,82,100,10.1,ZA,1613440900
200,codrington,-38.2667,141.9667,301.14,38,98,2.43,AU,1613441037
201,batagay-alyta,67.8006,130.4114,241.4,85,92,0.6,RU,1613441038
202,santa fe,-31.6333,-60.7,297.04,84,63,1.79,AR,1613440956
203,nova olimpia,-14.7972,-57.2881,297.45,87,100,1.31,BR,1613441038
204,koshurnikovo,54.1667,93.3,264.64,98,100,1.08,RU,1613441038
205,mandalgovi,45.7625,106.2708,258.83,88,0,5.36,MN,1613441039
206,chifeng,42.2683,118.9636,259.07,64,0,9.63,CN,1613441039
207,barrow,71.2906,-156.7887,250.15,77,90,3.6,US,1613441039
208,baherden,38.4362,57.4316,283.79,45,0,0.57,TM,1613441040
209,kununurra,-15.7667,128.7333,300.15,58,100,1.54,AU,1613441040
210,lebu,-37.6167,-73.65,286.37,86,0,6.01,CL,1613441040
211,bandarbeyla,9.4942,50.8122,296.24,74,15,3.6,SO,1613441040
212,palmer,42.1584,-72.3287,272.04,93,90,2.06,US,1613441041
213,havoysund,70.9963,24.6622,268.15,74,0,0.51,NO,1613441041
214,shimoda,34.6667,138.95,284.15,50,20,10.29,JP,1613440992
215,tautira,-17.7333,-149.15,301.15,74,75,6.17,PF,1613441042
216,dillon,34.4166,-79.3712,282.04,100,90,3.09,US,1613441042
217,sur,22.5667,59.5289,294.15,60,0,1.1,OM,1613441042
218,nizwa,22.9333,57.5333,287.03,66,0,0.64,OM,1613441043
219,wajid,3.8093,43.2471,294.02,74,0,7.26,SO,1613441043
220,bengkulu,-3.8004,102.2655,301.45,72,60,2.37,ID,1613441043
221,chuy,-33.6971,-53.4616,293.84,91,100,3.2,UY,1613441044
222,lethem,3.3803,-59.7968,299.16,64,1,4.61,GY,1613441044
223,aras,42.5617,-2.356,281.15,87,90,6.69,ES,1613441044
224,berlevag,70.8578,29.0864,267.23,91,49,3.0,NO,1613441044
225,sibu,2.3,111.8167,299.15,83,20,1.03,MY,1613441045
226,ponta do sol,32.6667,-17.1,289.26,88,20,2.57,PT,1613441045
227,sechura,-5.5569,-80.8222,298.51,67,65,6.56,PE,1613441045
228,pullman,46.7313,-117.1796,267.59,86,90,0.47,US,1613440789
229,saskylakh,71.9167,114.0833,245.33,86,100,3.64,RU,1613441046
230,myitkyina,25.3833,97.4,293.25,53,0,1.64,MM,1613441046
231,west bay,19.3667,-81.4167,300.37,78,20,4.12,KY,1613441047
232,fort dodge,42.4975,-94.168,248.15,70,1,2.06,US,1613440929
233,polovinnoye,54.7914,65.9864,251.27,89,0,1.58,RU,1613441047
234,skjervoy,70.0311,20.9714,273.23,92,56,4.63,NO,1613441047
235,shache,38.4167,77.2406,272.93,83,0,1.57,CN,1613441048
236,turka,49.1541,23.0297,263.71,84,99,0.77,UA,1613441048
237,plouzane,48.3833,-4.6167,285.15,82,90,9.77,FR,1613441049
238,nanortalik,60.1432,-45.2371,265.97,87,0,9.09,GL,1613441049
239,kahului,20.8947,-156.47,301.15,57,40,3.6,US,1613441049
240,potanino,55.1786,61.6222,253.15,77,40,3.0,RU,1613441049
241,lensk,60.7253,114.9278,241.82,80,45,2.89,RU,1613441050
242,ternate,0.8,127.4,302.14,71,23,4.42,ID,1613441019
243,mitzic,0.7821,11.549,293.7,97,100,1.15,GA,1613441050
244,shadrinsk,56.0852,63.6335,250.22,88,6,2.56,RU,1613441051
245,nouakchott,18.0858,-15.9785,298.15,20,95,3.09,MR,1613441051
246,cayenne,4.9333,-52.3333,297.15,94,75,5.79,GF,1613441051
247,cockburn town,21.4612,-71.1419,298.15,73,40,7.72,TC,1613441051
248,urucara,-2.5364,-57.76,296.52,97,100,1.49,BR,1613441052
249,acapulco,16.8634,-99.8901,298.15,69,20,4.12,MX,1613440973
250,luderitz,-26.6481,15.1594,291.41,60,0,9.01,NA,1613441052
251,verkhnetulomskiy,68.6073,31.7962,249.15,77,40,1.0,RU,1613441053
252,nome,64.5011,-165.4064,261.15,67,1,2.6,US,1613441053
253,jadu,31.953,12.0261,277.32,72,85,5.24,LY,1613441053
254,raudeberg,61.9875,5.1352,277.04,76,98,4.61,NO,1613441054
255,bandrele,-12.9067,45.1914,301.15,83,20,4.63,YT,1613441054
256,aklavik,68.2191,-135.0107,252.15,77,100,2.06,CA,1613441054
257,vryburg,-26.9566,24.7284,291.82,78,0,4.67,ZA,1613441054
258,vikindu,-7.0067,39.2985,298.84,83,100,2.7,TZ,1613441055
259,bambanglipuro,-7.95,110.2833,302.6,68,0,1.44,ID,1613441006
260,anloga,5.7947,0.8973,301.15,83,40,5.14,GH,1613441055
261,lynn haven,30.2455,-85.6483,285.93,88,100,3.13,US,1613441055
262,bathsheba,13.2167,-59.5167,298.15,65,20,8.75,BB,1613441056
263,garissa,-0.4536,39.6401,296.93,72,0,2.29,KE,1613441056
264,yulara,-25.2406,130.9889,305.15,13,0,7.2,AU,1613441056
265,bolobo,-2.1667,16.2333,296.36,91,100,1.75,CD,1613441057
266,eydhafushi,5.1033,73.0708,300.35,67,0,2.65,MV,1613441057
267,turukhansk,65.8167,87.9833,249.71,89,100,7.43,RU,1613441057
268,awjilah,29.1081,21.2869,281.58,64,2,7.55,LY,1613441057
269,baykit,61.67,96.37,247.33,84,100,1.59,RU,1613441058
270,moerai,-22.4333,-151.3333,301.3,74,86,5.72,PF,1613441058
271,portland,45.5234,-122.6762,281.48,71,75,5.14,US,1613440806
272,harper,4.375,-7.7169,299.37,88,100,2.38,LR,1613440995
273,kesinga,20.2,83.2333,292.55,53,0,1.28,IN,1613441059
274,najran,17.4924,44.1277,288.15,33,0,0.8,SA,1613441059
275,doha,25.2867,51.5333,290.15,88,0,1.54,QA,1613440824
276,margate,51.3813,1.3862,282.59,86,100,1.34,GB,1613441060
277,peleduy,59.6289,112.7406,242.96,83,0,1.03,RU,1613441060
278,inuvik,68.3499,-133.7218,252.15,77,100,2.06,CA,1613441060
279,vila franca do campo,37.7167,-25.4333,286.15,67,20,7.72,PT,1613441060
280,rock springs,41.5875,-109.2029,269.15,80,90,8.23,US,1613441061
281,asau,46.4333,26.4,263.15,61,18,1.33,RO,1613441061
282,morondava,-20.2833,44.2833,298.26,88,100,7.31,MG,1613441061
283,taltal,-25.4,-70.4833,291.61,76,4,1.57,CL,1613440866
284,mount gambier,-37.8333,140.7667,301.15,42,53,3.6,AU,1613441062
285,hede,33.7681,120.2517,281.03,57,2,6.48,CN,1613440833
286,constitucion,-35.3333,-72.4167,286.08,85,2,2.17,CL,1613441062
287,bull savanna,17.8868,-77.5902,296.34,87,4,4.47,JM,1613441063
288,necochea,-38.5473,-58.7368,289.26,97,100,3.13,AR,1613441063
289,swan river,52.1058,-101.2676,251.15,54,5,2.06,CA,1613440923
290,leningradskiy,69.3833,178.4167,248.12,86,0,1.41,RU,1613441064
291,manokwari,-0.8667,134.0833,300.5,71,100,1.82,ID,1613440815
292,gotsu,35.0,132.2167,278.15,60,75,5.14,JP,1613441064
293,caravelas,-17.7125,-39.2481,298.43,78,100,4.44,BR,1613441065
294,charters towers,-20.1,146.2667,299.99,67,94,3.83,AU,1613441065
295,paso de carrasco,-34.8603,-56.0522,294.26,88,75,1.54,UY,1613441065
296,nsanje,-16.92,35.262,299.6,66,100,2.07,MW,1613441066
297,lazaro cardenas,17.9583,-102.2,293.74,75,0,2.91,MX,1613441066
298,minna,9.6139,6.5569,299.98,14,0,4.33,NG,1613441066
299,saint-georges,12.0564,-61.7485,299.15,73,20,7.72,GD,1613441066
300,los llanos de aridane,28.6585,-17.9182,292.04,39,0,2.06,ES,1613441067
301,bilibino,68.0546,166.4372,251.95,86,44,0.37,RU,1613441067
302,aripuana,-9.1667,-60.6333,296.64,94,96,1.2,BR,1613441067
303,visnes,59.3556,5.2242,275.93,75,75,7.2,NO,1613441068
304,odiongan,12.4017,121.9919,299.38,75,4,5.84,PH,1613441068
305,kinston,35.2627,-77.5816,281.48,100,90,3.6,US,1613441068
306,ureki,41.9956,41.7786,278.15,93,75,3.6,GE,1613441069
307,neiafu,-18.65,-173.9833,302.15,74,40,3.09,TO,1613441069
308,sao lourenco do sul,-31.3653,-51.9783,293.15,94,97,1.14,BR,1613441069
309,berezanka,46.8526,31.388,266.08,94,98,7.47,UA,1613441069
310,may pen,17.9645,-77.2451,300.15,69,20,9.26,JM,1613441070
311,derac,19.65,-71.8167,298.12,75,0,4.76,HT,1613441070
312,vestmannaeyjar,63.4427,-20.2734,279.65,84,87,2.78,IS,1613441070
313,ahero,-0.1746,34.9163,293.08,66,90,1.22,KE,1613441071
314,xinmin,41.9908,122.8253,263.15,44,0,6.0,CN,1613441071
315,atasu,48.6814,71.6433,266.7,95,50,3.44,KZ,1613441071
316,luganville,-15.5333,167.1667,303.1,71,95,1.68,VU,1613441071
317,jiuquan,39.7432,98.5174,275.51,66,36,0.67,CN,1613441072
318,jiangyou,31.7667,104.7167,286.99,49,1,0.26,CN,1613441072
319,sitka,57.0531,-135.33,274.15,55,40,4.63,US,1613441072
320,calamar,10.2511,-74.9146,300.38,68,19,3.32,CO,1613441072
321,zhuhai,22.2769,113.5678,296.48,73,20,4.12,CN,1613441073
322,tromso,69.6496,18.957,268.71,93,40,0.51,NO,1613441073
323,gawler,-34.6,138.7333,308.71,20,70,3.13,AU,1613441074
324,shubarkuduk,49.1447,56.4872,260.8,94,100,1.46,KZ,1613441074
325,sinnamary,5.3833,-52.95,298.0,80,80,5.02,GF,1613441074
326,lucapa,-8.4192,20.7447,293.34,90,100,0.99,AO,1613441074
327,muzhi,65.3667,64.6667,244.31,87,96,2.61,RU,1613441075
328,kevsala,45.7983,42.6903,266.74,97,100,4.43,RU,1613441075
329,bandundu,-3.3167,17.3667,295.96,95,100,1.11,CD,1613441076
330,mount isa,-20.7333,139.5,307.15,29,0,3.09,AU,1613440853
331,innisfail,-17.5333,146.0333,301.93,65,100,2.97,AU,1613441076
332,guarapari,-20.6667,-40.4975,296.15,94,90,1.03,BR,1613441076
333,damnagar,21.7,71.5167,288.24,89,0,2.37,IN,1613441077
334,svetlogorsk,52.6333,29.7333,252.83,93,58,1.82,BY,1613441077
335,papara,-3.9839,-38.7273,301.15,78,40,2.57,BR,1613441077
336,caluquembe,-13.7833,14.6833,289.24,55,95,0.89,AO,1613441077
337,bosobolo,4.1833,19.9,295.2,51,100,1.05,CD,1613441078
338,guiyang,26.5833,106.7167,281.15,87,90,4.0,CN,1613441078
339,carman,49.4992,-98.0016,252.15,59,0,3.6,CA,1613441078
340,dunedin,-45.8742,170.5036,285.93,63,47,4.02,NZ,1613441079
341,shushtar,32.0455,48.8567,291.62,28,86,2.22,IR,1613441079
342,yelniki,54.6207,43.876,247.05,89,28,2.18,RU,1613441079
343,khandyga,62.6667,135.6,246.08,87,43,0.59,RU,1613441080
344,beringovskiy,63.05,179.3167,251.88,89,100,7.7,RU,1613441080
345,aktash,50.3,87.7333,259.21,75,100,2.21,RU,1613441080
346,pimentel,-6.8367,-79.9342,295.37,86,14,2.68,PE,1613441080
347,cidreira,-30.1811,-50.2056,295.76,85,69,2.15,BR,1613441081
348,fairbanks,64.8378,-147.7164,258.71,71,75,0.59,US,1613441081
349,inverbervie,56.8446,-2.28,280.37,87,75,3.09,GB,1613441081
350,ontario,34.0633,-117.6509,287.59,62,75,2.06,US,1613440957
351,mokhsogollokh,61.4681,128.9203,245.04,86,84,1.75,RU,1613441082
352,teya,60.3778,92.6267,255.53,90,100,2.02,RU,1613441082
353,bhinmal,25.0,72.25,286.33,67,0,2.13,IN,1613441082
354,nikko,36.75,139.6167,282.59,24,10,9.39,JP,1613441083
355,norman wells,65.282,-126.8329,251.15,77,75,2.06,CA,1613441083
356,urmenis,46.7667,24.3667,268.15,73,75,1.03,RO,1613441083
357,auki,-8.7676,160.7034,302.6,72,96,2.49,SB,1613441084
358,grindavik,63.8424,-22.4338,276.15,87,75,4.63,IS,1613441084
359,coffs harbour,-30.3,153.1333,296.48,83,75,8.23,AU,1613440829
360,tuatapere,-46.1333,167.6833,288.71,55,0,1.79,NZ,1613441084
361,talnakh,69.4865,88.3972,247.62,78,100,1.64,RU,1613441085
362,pevek,69.7008,170.3133,245.45,87,0,0.75,RU,1613441085
363,maragogi,-9.0122,-35.2225,298.79,85,30,2.55,BR,1613441085
364,parana,-31.732,-60.5238,296.48,84,78,1.79,AR,1613441086
365,kijang,35.2442,129.2139,275.15,25,0,3.6,KR,1613441086
366,flinders,-34.5833,150.8552,298.15,64,75,6.69,AU,1613441086
367,axim,4.8699,-2.2405,299.77,86,29,3.36,GH,1613441001
368,kodinsk,58.6881,99.1844,250.25,88,100,2.72,RU,1613441087
369,ibra,22.6906,58.5334,286.27,85,0,0.78,OM,1613441087
370,ciudad bolivar,8.1222,-63.5497,298.93,66,86,7.71,VE,1613441088
371,maketu,-37.7667,176.45,297.04,61,99,6.71,NZ,1613441088
372,gamba,-2.65,10.0,298.65,89,100,0.97,GA,1613441088
373,souillac,-20.5167,57.5167,298.15,94,75,1.54,MU,1613441088
374,longyearbyen,78.2186,15.6401,273.15,74,75,2.57,SJ,1613441089
375,hambantota,6.1241,81.1185,295.15,100,2,2.57,LK,1613441089
376,yaritagua,10.08,-69.1261,295.06,81,91,2.19,VE,1613441089
377,imbituba,-28.24,-48.6703,295.15,88,0,1.54,BR,1613440934
378,sri aman,1.2376,111.4621,298.15,88,20,1.22,MY,1613441090
379,sioux lookout,50.1001,-91.917,252.15,54,1,1.54,CA,1613441090
380,ancud,-41.8697,-73.8203,284.82,81,0,2.06,CL,1613441090
381,lompoc,34.6391,-120.4579,286.15,94,90,3.6,US,1613441091
382,havelock,34.8791,-76.9013,282.15,100,90,3.09,US,1613441091
383,coquimbo,-29.9533,-71.3436,289.15,82,0,2.57,CL,1613441063
384,yenagoa,4.9247,6.2642,298.36,93,2,1.47,NG,1613441092
385,amposta,40.7131,0.581,281.48,96,54,4.59,ES,1613441092
386,bayburt,40.2589,40.2278,275.14,88,89,1.95,TR,1613441092
387,eyl,7.9803,49.8164,296.06,84,39,4.96,SO,1613441093
388,vila velha,-20.3297,-40.2925,296.15,100,90,1.54,BR,1613440835
389,bud,39.447,-86.1758,262.59,92,100,6.31,US,1613441094
390,porto santo,33.072,-16.3415,288.15,88,20,3.6,PT,1613441094
391,ciudad del maiz,22.4,-99.6,279.26,61,0,6.26,MX,1613441094
392,tursunzoda,38.5144,68.2333,282.15,34,100,5.0,TJ,1613441095
393,ayr,55.4627,-4.6339,281.15,87,40,7.2,GB,1613441095
394,bani,18.2833,-70.3333,299.26,76,31,2.24,DO,1613441095
395,yar-sale,66.8333,70.8333,249.64,89,100,7.98,RU,1613441096
396,umea,63.8284,20.2597,267.15,93,90,3.09,SE,1613441096
397,tiznit,29.5833,-9.5,287.61,36,0,4.28,MA,1613441096
398,yumen,40.2833,97.2,274.22,71,0,3.32,CN,1613441096
399,masuda,34.6667,131.85,278.15,60,75,5.14,JP,1613441097
400,buzuluk,52.7807,52.2635,248.08,88,3,2.19,RU,1613440838
401,tamiahua,21.2667,-97.45,285.28,79,100,5.73,MX,1613441097
402,aswan,24.0934,32.907,289.16,32,25,4.76,EG,1613441098
403,bin qirdan,33.1378,11.2197,283.45,54,100,5.71,TN,1613441098
404,adrar,20.5022,-10.0711,291.58,28,100,8.3,MR,1613441098
405,camopi,3.1655,-52.3158,294.34,97,100,1.01,GF,1613441098
406,northam,51.0333,-4.2167,284.26,92,100,5.36,GB,1613441099
407,praia da vitoria,38.7333,-27.0667,286.15,76,20,5.17,PT,1613441099
408,draguignan,43.5333,6.4667,281.15,71,90,4.12,FR,1613441099
409,cananeia,-25.0147,-47.9267,297.22,84,76,0.92,BR,1613441099
410,proddatur,14.7333,78.55,292.56,67,0,1.47,IN,1613441100
411,pemangkat,1.1667,108.9667,299.19,74,54,3.86,ID,1613441100
412,porto walter,-8.2686,-72.7439,297.61,91,100,1.49,BR,1613441101
413,clonakilty,51.6231,-8.8706,282.59,87,75,9.77,IE,1613441101
414,gerash,27.6652,54.1371,280.15,42,0,0.64,IR,1613441101
415,acarau,-2.8856,-40.12,299.4,86,100,4.4,BR,1613441101
416,roura,4.7263,-52.3274,297.15,94,75,1.86,GF,1613441102
417,guilin,25.2819,110.2864,289.15,88,75,2.9,CN,1613441102
418,gladstone,-23.85,151.25,302.15,51,0,4.63,AU,1613441102
419,safaga,26.7292,33.9365,289.15,36,0,2.57,EG,1613441103
420,limbourg,51.25,6.0,278.71,94,100,3.64,NL,1613440926
421,srednekolymsk,67.45,153.6833,246.84,87,99,1.38,RU,1613441103
422,marsh harbour,26.5412,-77.0636,297.27,87,0,6.01,BS,1613441103
423,seoul,37.5683,126.9778,270.15,74,90,2.06,KR,1613440902
424,korsakov,46.6328,142.7813,274.15,93,90,8.0,RU,1613441104
425,media luna,20.1419,-77.435,298.21,78,0,4.01,CU,1613441104
426,iracoubo,5.4802,-53.2011,298.25,79,97,5.04,GF,1613441105
427,guipos,7.7161,123.3219,301.32,72,92,1.59,PH,1613441105
428,kyaukse,21.6,96.1333,287.15,67,0,1.03,MM,1613441105
429,viransehir,37.2353,39.7631,281.49,79,96,1.42,TR,1613441106
430,sibiti,-3.6819,13.3499,294.27,100,100,1.13,CG,1613441042
431,gus-zheleznyy,55.0581,41.1656,248.65,89,0,1.67,RU,1613441106
432,sorland,67.667,12.6934,265.15,93,0,1.03,NO,1613441107
433,asfi,32.2994,-9.2372,289.37,71,18,2.08,MA,1613441107
434,beatrice,40.2681,-96.747,249.26,70,1,2.06,US,1613441107
435,sistranda,63.7256,8.834,273.15,74,75,5.14,NO,1613441107
436,hirara,24.8,125.2833,294.15,49,20,4.12,JP,1613441108
437,san patricio,28.017,-97.5169,272.15,74,20,4.12,US,1613441108
438,makakilo city,21.3469,-158.0858,299.15,73,1,2.57,US,1613441108
439,port-gentil,-0.7193,8.7815,298.93,81,99,5.32,GA,1613441109
440,fortuna,40.5982,-124.1573,282.59,93,75,3.6,US,1613441109
441,magadan,59.5667,150.8,255.38,82,98,2.47,RU,1613441041
442,offenburg,48.4833,7.9333,278.71,75,90,4.12,DE,1613441110
443,digras,20.1167,77.7167,295.57,33,76,2.88,IN,1613441110
444,filadelfia,39.9523,-75.1638,274.26,86,90,6.17,US,1613440918
445,shaunavon,49.6501,-108.4181,255.15,78,99,7.72,CA,1613441111
446,voznesenye,61.0106,35.4781,260.91,96,100,2.78,RU,1613441111
447,atbasar,51.8,68.3333,264.96,96,100,2.91,KZ,1613441111
448,nara,34.6851,135.8049,282.59,42,20,6.17,JP,1613440868
449,port lincoln,-34.7333,135.8667,298.77,45,53,5.0,AU,1613441112
450,moctezuma,29.8,-109.6667,285.86,38,53,2.39,MX,1613441073
451,hammerfest,70.6634,23.6821,268.15,74,0,0.51,NO,1613441112
452,san-pedro,4.7485,-6.6363,298.93,92,100,2.39,CI,1613441113
453,mayahi,13.9553,7.6712,294.99,19,0,5.5,NE,1613441073
454,whitehorse,60.7161,-135.0538,253.15,71,1,2.57,CA,1613441113
455,teguldet,57.3064,88.1667,268.96,98,100,4.48,RU,1613441113
456,aberdeen,57.1437,-2.0981,280.37,87,75,3.09,GB,1613440967
457,port blair,11.6667,92.75,299.43,76,34,3.51,IN,1613441114
458,warman,52.3168,-106.5679,253.15,59,20,7.72,CA,1613441114
459,abapo,-18.8333,-63.4667,292.28,100,95,1.02,BO,1613441115
460,baruun-urt,46.6806,113.2792,248.03,83,15,2.89,MN,1613441115
461,abnub,27.2696,31.1511,284.15,62,0,2.57,EG,1613441115
462,tarakan,3.3,117.6333,301.15,83,40,1.54,ID,1613441115
463,avera,33.194,-82.5271,288.15,96,75,5.14,US,1613441116
464,skoghall,59.3232,13.4655,269.15,100,90,1.54,SE,1613441116
465,pacific grove,36.6177,-121.9166,285.37,87,1,3.6,US,1613441015
466,umm kaddadah,13.6017,26.6876,294.27,22,69,5.09,SD,1613441116
467,campo verde,-20.4167,-54.0667,296.15,88,20,3.09,BR,1613440923
468,riberalta,-10.9833,-66.1,297.78,90,89,1.13,BO,1613441117
469,lata,40.1629,-8.3327,286.48,71,0,3.6,PT,1613441117
470,ilulissat,69.2167,-51.1,257.15,55,75,4.63,GL,1613441118
471,mamallapuram,12.6264,80.1722,294.15,94,20,1.03,IN,1613441118
472,hami,42.8,93.45,274.11,74,0,1.57,CN,1613441118
473,ouesso,1.6136,16.0517,296.15,86,100,2.15,CG,1613441118
474,merauke,-8.4667,140.3333,302.24,73,100,4.51,ID,1613440870
475,saldanha,-33.0117,17.9442,287.15,62,0,3.6,ZA,1613441119
476,salinopolis,-0.6136,-47.3561,298.88,86,100,5.8,BR,1613441119
477,raymond,43.9015,-70.4703,269.82,86,100,0.51,US,1613440996
478,torata,-17.0769,-70.8433,286.9,72,15,1.34,PE,1613441120
479,manoel urbano,-8.8389,-69.2597,297.03,96,100,1.63,BR,1613441120
480,nicoya,10.1483,-85.452,299.15,65,0,2.57,CR,1613441048
481,russell,32.3502,-85.1999,282.15,87,90,5.14,US,1613441123
482,vao,-22.6667,167.4833,299.41,84,100,5.52,NC,1613441123
483,tilichiki,60.4667,166.1,252.6,90,0,3.55,RU,1613441124
484,san andres,12.5847,-81.7006,300.15,83,20,4.63,CO,1613441081
485,broken hill,-31.95,141.4333,301.15,30,98,5.66,AU,1613441124
486,anadyr,64.75,177.4833,255.15,55,0,1.0,RU,1613441124
487,mala,-12.6581,-76.6308,295.66,72,5,1.36,PE,1613441125
488,kendari,-3.945,122.4989,303.45,66,100,0.52,ID,1613441125
489,tutoia,-2.7619,-42.2744,299.24,85,100,4.04,BR,1613441126
490,sao filipe,14.8961,-24.4956,295.84,71,18,3.68,CV,1613441126
491,aljezur,37.3191,-8.8033,286.74,86,100,6.98,PT,1613441062
492,tamandare,-8.7597,-35.1047,298.62,86,27,2.15,BR,1613441071
493,tucuman,-26.8241,-65.2226,292.15,94,75,2.06,AR,1613441127
494,binga,-17.6203,27.3414,295.56,90,98,1.75,ZW,1613441127
495,aksu,41.1231,80.2644,270.74,91,0,0.34,CN,1613441127
496,bestobe,52.4994,73.0975,266.41,97,100,4.25,KZ,1613441128
497,jalu,29.0331,21.5482,281.39,63,0,6.75,LY,1613441128
498,berbera,10.4396,45.0143,295.31,75,0,0.68,SO,1613441128
499,winslow,35.0242,-110.6974,282.04,36,40,10.8,US,1613441128
500,dudinka,69.4058,86.1778,248.97,90,100,3.54,RU,1613441129
501,zabol,32.25,67.25,276.43,63,0,0.51,AF,1613441129
502,sao jose da coroa grande,-8.8978,-35.1478,298.91,84,42,2.51,BR,1613441129
503,katobu,-4.9408,122.5276,301.43,74,100,2.83,ID,1613441130
504,zhangjiakou,40.81,114.8794,261.04,61,0,9.44,CN,1613441130
505,panaba,21.2833,-88.2667,295.59,89,98,5.42,MX,1613441130
506,rio grande,-32.035,-52.0986,293.15,94,99,1.54,BR,1613441131
507,pemberton,50.3164,-122.8027,272.59,86,90,0.4,CA,1613441131
508,belaya gora,68.5333,146.4167,242.58,86,8,0.49,RU,1613441131
509,forestville,38.8451,-76.875,275.37,100,90,2.57,US,1613440988
510,vila,42.0304,-8.1588,284.82,86,99,8.05,PT,1613441132
511,cape coast,5.1053,-1.2466,300.22,85,27,3.86,GH,1613441132
512,jumla,29.2747,82.1838,276.22,70,1,1.81,NP,1613441132
513,udachnyy,66.4167,112.4,238.96,81,74,2.25,RU,1613440888
514,fare,-16.7,-151.0167,300.94,69,100,5.72,PF,1613441133
515,husavik,66.0449,-17.3389,276.15,81,75,5.14,IS,1613441133
516,ous,60.9058,61.5186,245.86,87,0,0.72,RU,1613441134
517,mangochi,-14.4782,35.2645,297.51,81,100,3.34,MW,1613441134
518,clyde river,70.4692,-68.5914,244.15,76,0,2.06,CA,1613441134
519,wewak,-3.5534,143.6268,302.99,67,100,1.6,PG,1613441135
520,riverton,40.5219,-111.9391,274.82,100,75,5.66,US,1613441135
521,petropavlovsk-kamchatskiy,53.0452,158.6483,264.15,53,99,2.0,RU,1613441135
522,matara,5.9485,80.5353,297.16,92,41,2.19,LK,1613441136
523,karasjok,69.4719,25.5112,255.15,85,21,1.54,NO,1613441136
524,christchurch,-43.5333,172.6333,290.15,39,20,6.69,NZ,1613441104
525,iquitos,-3.7481,-73.2472,301.15,83,75,2.06,PE,1613441137
526,kurduvadi,18.0833,75.4333,293.36,40,0,2.34,IN,1613441137
527,naryan-mar,67.6713,53.087,242.68,85,100,4.57,RU,1613441137
528,mortka,59.3322,66.0214,248.61,90,10,2.5,RU,1613441137
529,tazovskiy,67.4667,78.7,251.81,91,100,7.23,RU,1613441138
530,valparaiso,-33.0393,-71.6273,287.15,100,20,1.03,CL,1613440904
531,bonavista,48.6499,-53.1147,269.26,79,96,3.09,CA,1613441138
532,khani,41.9563,42.9566,278.15,93,90,5.14,GE,1613441139
533,havre-saint-pierre,50.2334,-63.5986,262.15,57,75,2.06,CA,1613441139
534,puri,19.8,85.85,293.15,94,40,4.58,IN,1613441139
535,marystown,47.1666,-55.1483,269.93,90,100,7.08,CA,1613441139
536,taiyuan,37.8694,112.5603,276.15,28,0,1.0,CN,1613441140
537,dibombari,4.1787,9.6561,298.15,100,40,2.06,CM,1613441140
538,kalispell,48.1958,-114.3129,265.15,86,90,1.54,US,1613441140
539,dickinson,29.4608,-95.0513,267.15,58,1,6.17,US,1613441141
540,tingo maria,-9.2895,-76.0088,295.3,82,100,0.87,PE,1613441141
541,goderich,43.7501,-81.7165,263.15,73,100,5.66,CA,1613440884
542,cottonwood,34.7392,-112.0099,284.26,34,69,1.34,US,1613441142
543,passau,48.5712,13.449,272.04,93,100,0.25,DE,1613441142
544,san quintin,30.4833,-115.95,287.64,81,87,5.52,MX,1613441142
545,egersund,58.4513,5.9997,275.93,69,90,5.66,NO,1613441142
546,gonzales,30.2385,-90.9201,270.15,93,1,3.4,US,1613441143
547,mogadouro,41.3403,-6.7119,284.26,68,100,2.68,PT,1613441143
548,olinda,-8.0089,-34.8553,300.15,69,75,3.09,BR,1613440978
549,toora-khem,52.4675,96.11,261.8,93,100,0.55,RU,1613441144
550,bukachacha,52.9833,116.9167,248.13,81,0,2.02,RU,1613441144
551,kibala,9.1104,18.3463,298.15,31,0,3.12,TD,1613441144
552,alamos,27.0167,-108.9333,291.48,48,19,1.59,MX,1613441144
553,deputatskiy,69.3,139.9,243.34,85,0,0.37,RU,1613441145
554,yerbogachen,61.2767,108.0108,238.91,83,88,1.97,RU,1613441145
555,abancay,-13.6339,-72.8814,288.29,64,100,0.97,PE,1613441145
556,emerald,-23.5333,148.1667,303.15,45,40,4.12,AU,1613441146
557,dong hoi,17.4833,106.6,294.66,80,83,0.98,VN,1613441146
558,high prairie,55.4334,-116.4858,256.15,71,100,3.09,CA,1613441146
559,nuevitas,21.5453,-77.2644,298.15,83,40,2.06,CU,1613441147
560,ozernovskiy,51.5,156.5167,269.95,83,100,2.89,RU,1613441147
561,jennings,38.7192,-90.2604,256.48,78,90,5.66,US,1613441147
562,muros,42.7762,-9.0603,288.15,78,100,5.81,ES,1613441148
563,las choapas,17.9333,-94.0833,293.15,88,40,5.14,MX,1613441148
564,san cristobal,7.7669,-72.225,293.24,87,97,0.73,VE,1613441148
565,liverpool,53.4106,-2.9779,284.15,87,75,6.17,GB,1613440945
566,el tigre,8.8875,-64.2454,297.49,70,95,6.81,VE,1613441149
567,solnechnyy,50.7214,136.6319,257.0,90,100,9.66,RU,1613441149
568,bhatkal,13.9667,74.5667,296.58,81,25,2.33,IN,1613441150
569,odate,40.2686,140.5683,273.15,64,75,12.86,JP,1613441150
570,carutapera,-1.195,-46.02,297.43,93,100,1.75,BR,1613441150
571,trinidad,-14.8333,-64.9,295.63,98,41,1.47,BO,1613441151
572,yining,29.0361,114.5636,285.26,85,100,0.8,CN,1613441151
573,leh,34.1667,77.5833,257.25,66,0,1.31,IN,1613441151
574,carmen,18.6333,-91.8333,297.15,83,40,8.75,MX,1613440862
575,hovd,48.0056,91.6419,261.54,84,0,0.63,MN,1613441152
576,kundla,21.3333,71.3,288.02,89,0,3.62,IN,1613441152
577,kalmar,56.6616,16.3616,272.15,80,40,3.09,SE,1613441152
578,changji,44.0167,87.3167,264.15,92,90,1.0,CN,1613441153
579,svetogorsk,61.1121,28.8632,268.71,90,100,2.24,RU,1613441153
580,camacha,33.0833,-16.3333,288.15,88,20,3.6,PT,1613441154
581,monrovia,6.3005,-10.7969,299.57,87,59,1.79,LR,1613441154
582,gizo,-8.103,156.8419,302.54,71,36,2.2,SB,1613441154
583,samarai,-10.6167,150.6667,302.3,69,100,1.04,PG,1613441154
584,mehamn,71.0357,27.8492,265.9,93,29,3.66,NO,1613441155
585,beaumont,30.0861,-94.1019,267.15,73,1,6.17,US,1613441155
586,murchison,-41.8,172.3333,294.52,32,0,3.12,NZ,1613441155
