,City,Latitude,Longitude,Max Temp (Celsius),Humidity,Cloudiness,Wind Speed,Country,Date
0,sragen,-7.4264,111.0222,26.68,77,92,1.63,ID,1613955193
1,severo-yeniseyskiy,60.3725,93.0408,-26.32,90,100,1.13,RU,1613955194
2,puerto ayora,-0.7393,-90.3518,24.44,93,69,3.57,EC,1613955025
3,mar del plata,-38.0023,-57.5575,24.0,60,75,4.12,AR,1613954750
4,hilo,19.7297,-155.09,26.0,65,90,6.17,US,1613954598
5,airai,-8.9266,125.4092,21.05,81,100,1.33,TL,1613954848
6,fare,-16.7,-151.0167,27.74,70,100,3.43,PF,1613954898
7,new norfolk,-42.7826,147.0587,17.78,54,96,1.79,AU,1613954850
8,ballina,-28.8667,153.5667,29.0,54,0,4.12,AU,1613955196
9,mogadishu,2.0371,45.3438,25.16,83,100,8.8,SO,1613954879
10,hithadhoo,-0.6,73.0833,28.0,74,100,5.63,MV,1613954891
11,butaritari,3.0707,172.7902,27.46,78,100,8.56,KI,1613954868
12,ushuaia,-54.8,-68.3,5.0,87,75,4.12,AR,1613954851
13,kapaa,22.0752,-159.319,25.0,78,90,7.72,US,1613954855
14,vaini,-21.2,-175.2,29.0,70,20,6.17,TO,1613954851
15,flinders,-34.5833,150.8552,28.33,67,1,1.79,AU,1613954946
16,cherskiy,68.75,161.3,-32.99,84,100,3.04,RU,1613954870
17,assiniboia,49.6334,-105.9845,2.0,64,100,9.26,CA,1613955198
18,ilulissat,69.2167,-51.1,-14.0,78,90,3.6,GL,1613954845
19,villa carlos paz,-31.4241,-64.4978,25.56,83,75,2.57,AR,1613955198
20,luderitz,-26.6481,15.1594,18.17,67,0,9.34,NA,1613954909
21,port alfred,-33.5906,26.891,17.22,84,57,0.89,ZA,1613954862
22,albany,42.6001,-73.9662,-5.56,49,0,1.31,US,1613954784
23,barrow,71.2906,-156.7887,-21.0,77,90,7.72,US,1613954878
24,oranjestad,12.524,-70.027,26.0,73,20,7.2,AW,1613955200
25,vila franca do campo,37.7167,-25.4333,16.11,94,75,9.77,PT,1613954932
26,tukrah,32.5341,20.5791,11.38,78,0,5.86,LY,1613955017
27,bengkulu,-3.8004,102.2655,25.96,80,92,1.36,ID,1613954668
28,ngunguru,-35.6167,174.5,24.44,63,100,2.68,NZ,1613954958
29,uvira,-3.4067,29.1458,22.36,68,100,0.88,CD,1613955022
30,lasa,46.6166,10.7002,3.33,84,0,1.92,IT,1613954866
31,geraldton,-28.7667,114.6,27.0,44,0,2.06,AU,1613954962
32,roswell,34.0232,-84.3616,12.22,43,2,3.49,US,1613955202
33,wajid,3.8093,43.2471,21.24,75,100,7.63,SO,1613955203
34,punta arenas,-53.15,-70.9167,8.0,57,90,5.66,CL,1613954853
35,pangnirtung,66.1451,-65.7125,-21.63,60,7,0.53,CA,1613955034
36,kyzyl-suu,42.3414,78.0056,-1.77,84,100,1.24,KG,1613955204
37,abdanan,32.9926,47.4198,5.3,60,0,1.78,IR,1613955204
38,gitarama,-2.0744,29.7567,17.78,82,100,2.68,RW,1613955204
39,castro,-24.7911,-50.0119,17.35,93,21,3.82,BR,1613954865
40,saint-philippe,-21.3585,55.7679,24.0,78,0,2.57,RE,1613954855
41,faanui,-16.4833,-151.75,27.76,68,65,2.55,PF,1613954969
42,isangel,-19.55,169.2667,30.0,74,75,6.17,VU,1613954878
43,rikitea,-23.1203,-134.9692,26.73,66,0,3.46,PF,1613954848
44,esil,51.9556,66.4042,-31.27,87,12,1.9,KZ,1613955206
45,mabaruma,8.2,-59.7833,23.32,93,100,1.69,GY,1613955207
46,gorontalo,0.5412,123.0595,29.05,67,100,1.32,ID,1613955207
47,kindu,-2.95,25.95,20.64,88,96,0.93,CD,1613955122
48,padang,-0.9492,100.3543,25.0,94,20,1.03,ID,1613955207
49,kimbe,-5.5502,150.1429,31.46,62,20,1.93,PG,1613955066
50,maridi,4.9158,29.4742,17.66,29,0,0.55,SS,1613955208
51,kavieng,-2.5744,150.7967,29.11,72,93,3.08,PG,1613955064
52,ahipara,-35.1667,173.1667,22.97,58,62,5.21,NZ,1613954921
53,great yarmouth,52.6083,1.7305,7.0,93,100,1.54,GB,1613954947
54,atuona,-9.8,-139.0333,26.17,80,100,5.64,PF,1613954863
55,nouadhibou,20.931,-17.0347,18.0,82,0,8.75,MR,1613954930
56,whitehorse,60.7161,-135.0538,-12.78,72,20,2.57,CA,1613955115
57,tsirguliina,57.864,26.1947,2.78,100,90,1.03,EE,1613955210
58,busselton,-33.65,115.3333,21.11,69,0,1.79,AU,1613954752
59,launceston,-41.45,147.1667,20.0,37,0,7.72,AU,1613955210
60,maldonado,-34.6667,-54.9167,22.22,88,0,3.6,UY,1613955211
61,victoria,22.2855,114.1577,20.56,82,0,2.23,HK,1613954703
62,nantucket,41.2835,-70.0995,-4.0,68,1,1.54,US,1613955109
63,lorengau,-2.0226,147.2712,29.9,67,92,2.96,PG,1613954854
64,lebu,-37.6167,-73.65,13.77,88,7,3.48,CL,1613954934
65,yellowknife,62.456,-114.3525,-21.11,64,75,2.57,CA,1613954812
66,ribeira grande,38.5167,-28.7,16.61,87,100,11.91,PT,1613954905
67,prince rupert,54.3161,-130.3201,6.0,93,90,2.06,CA,1613955075
68,praia,14.9215,-23.5087,20.0,77,0,10.29,CV,1613955213
69,cape town,-33.9258,18.4232,17.0,59,0,7.72,ZA,1613955078
70,khatanga,71.9667,102.5,-32.51,85,100,5.52,RU,1613954844
71,longyearbyen,78.2186,15.6401,-5.0,68,40,6.17,SJ,1613954874
72,fasa,28.9383,53.6482,9.0,93,75,0.76,IR,1613955215
73,krasnyy,54.5678,31.4333,-0.11,99,100,3.11,RU,1613955215
74,eldorado,-23.7869,-54.2836,23.05,76,0,1.67,BR,1613954884
75,saint george,37.1041,-113.5841,13.0,21,1,3.09,US,1613954637
76,magdagachi,53.45,125.8,-24.37,84,0,3.74,RU,1613955216
77,sawtell,-30.3833,153.1,30.0,57,0,7.2,AU,1613955216
78,bluff,-46.6,168.3333,24.44,44,100,1.34,NZ,1613954864
79,broken hill,-31.95,141.4333,20.0,52,0,9.77,AU,1613954850
80,hermanus,-34.4187,19.2345,12.22,85,73,5.0,ZA,1613954601
81,tiksi,71.6872,128.8694,-32.88,85,35,2.36,RU,1613954857
82,hobart,-42.8794,147.3294,19.0,34,0,7.72,AU,1613954693
83,gizo,-8.103,156.8419,29.03,69,48,0.64,SB,1613955107
84,mataura,-46.1927,168.8643,23.89,44,100,0.89,NZ,1613955019
85,cayenne,4.9333,-52.3333,27.0,78,75,4.12,GF,1613954636
86,horsham,51.064,-0.3272,10.0,93,0,0.51,GB,1613954997
87,hamilton,39.1834,-84.5333,4.0,60,1,3.6,US,1613954743
88,lufkin,31.3382,-94.7291,19.0,63,90,2.57,US,1613955220
89,san patricio,28.017,-97.5169,22.0,64,40,9.26,US,1613954950
90,patria,11.7403,122.0171,25.67,87,100,3.31,PH,1613955221
91,bathsheba,13.2167,-59.5167,24.0,73,40,6.17,BB,1613954878
92,seoul,37.5683,126.9778,9.0,87,75,2.57,KR,1613954975
93,erzin,36.9559,36.2,4.44,51,0,5.81,TR,1613954996
94,georgetown,5.4112,100.3354,26.11,73,20,2.57,MY,1613954686
95,mount gambier,-37.8333,140.7667,18.0,52,75,7.72,AU,1613954941
96,muros,42.7762,-9.0603,3.89,95,1,1.01,ES,1613954990
97,tucuma,-0.1833,-50.05,24.6,90,100,2.07,BR,1613955223
98,mananara,-16.1667,49.7667,24.22,90,51,1.57,MG,1613955223
99,belogorsk,50.9158,128.4611,-19.13,91,99,6.2,RU,1613955223
100,makhachkala,42.9764,47.5024,-3.0,86,0,2.0,RU,1613955223
101,flin flon,54.7682,-101.865,0.0,59,90,4.12,CA,1613954974
102,itoman,26.1247,127.6694,22.0,60,20,3.09,JP,1613955224
103,saint-augustin,51.226,-58.6502,-13.95,90,73,4.1,CA,1613954955
104,zhangjiakou,40.81,114.8794,-2.21,80,18,5.11,CN,1613955225
105,vardo,70.3705,31.1107,-11.82,94,100,11.51,NO,1613954876
106,zemio,5.0314,25.1361,18.5,36,100,0.92,CF,1613955225
107,kodiak,57.79,-152.4072,1.0,69,75,2.4,US,1613954852
108,khani,41.9563,42.9566,-1.0,93,0,2.06,GE,1613955226
109,kaitangata,-46.2817,169.8464,18.89,74,100,2.68,NZ,1613954871
110,bethel,41.3712,-73.414,-4.0,54,1,0.61,US,1613954844
111,thompson,55.7435,-97.8558,-2.0,74,90,1.54,CA,1613954862
112,katsuura,35.1333,140.3,15.0,82,0,1.03,JP,1613954877
113,upernavik,72.7868,-56.1549,-28.98,84,18,6.56,GL,1613954925
114,oranjemund,-28.55,16.4333,16.79,76,0,7.26,NA,1613955228
115,khashuri,41.9941,43.5999,-2.04,86,37,1.76,GE,1613955228
116,norman wells,65.282,-126.8329,-31.0,76,75,1.03,CA,1613955040
117,arraial do cabo,-22.9661,-42.0278,24.86,86,3,3.21,BR,1613954896
118,dikson,73.5069,80.5464,-16.65,95,100,2.33,RU,1613954904
119,sungaipenuh,-2.0833,101.3833,20.61,88,97,1.44,ID,1613955230
120,kruisfontein,-34.0033,24.7314,15.0,82,7,0.89,ZA,1613954862
121,nehe,48.4833,124.8333,-15.37,86,91,7.84,CN,1613955230
122,vrangel,42.7297,133.0839,-1.91,90,16,2.76,RU,1613955231
123,sarankhola,22.3082,89.7897,17.57,43,0,1.93,BD,1613955231
124,comodoro rivadavia,-45.8667,-67.5,15.0,51,40,7.2,AR,1613955126
125,nara,34.6851,135.8049,18.33,55,0,1.03,JP,1613955187
126,raudeberg,61.9875,5.1352,8.33,73,100,8.09,NO,1613955137
127,viedma,-40.8135,-62.9967,20.96,38,0,10.91,AR,1613955232
128,hasaki,35.7333,140.8333,15.0,63,20,0.51,JP,1613954900
129,severo-kurilsk,50.6789,156.125,0.17,91,84,5.17,RU,1613954848
130,katete,-0.7818,29.7544,18.89,69,100,1.08,UG,1613955233
131,vestmannaeyjar,63.4427,-20.2734,3.99,79,100,5.08,IS,1613954895
132,oltedal,58.831,6.0466,8.0,81,0,3.09,NO,1613955234
133,jamestown,42.097,-79.2353,-2.78,46,1,3.09,US,1613954746
134,hovd,48.0056,91.6419,-7.94,76,0,3.06,MN,1613954948
135,pevek,69.7008,170.3133,-27.08,88,100,2.92,RU,1613954986
136,dongsheng,39.8161,109.9776,-0.74,88,68,2.47,CN,1613955235
137,klenovyy,48.1193,39.4588,-1.51,99,100,5.05,UA,1613955235
138,madang,-5.2246,145.7966,31.16,61,67,0.84,PG,1613955236
139,avarua,-21.2078,-159.775,29.0,74,20,3.6,CK,1613954868
140,kefamenanu,-9.4467,124.4781,26.55,74,100,1.78,ID,1613955236
141,chase,50.8165,-119.6857,8.0,53,100,2.06,CA,1613955237
142,port elizabeth,-33.918,25.5701,16.0,77,0,2.57,ZA,1613954850
143,port-gentil,-0.7193,8.7815,27.32,79,100,4.77,GA,1613955033
144,beringovskiy,63.05,179.3167,-25.6,82,0,3.47,RU,1613955022
145,west bay,19.3667,-81.4167,27.0,69,20,5.14,KY,1613955043
146,cockburn town,21.4612,-71.1419,24.0,73,40,3.6,TC,1613955130
147,zhigansk,66.7697,123.3711,-30.99,85,100,0.26,RU,1613955133
148,half moon bay,37.4636,-122.4286,17.0,62,1,4.63,US,1613954731
149,vigia del fuerte,6.5789,-76.8863,23.73,93,87,1.0,CO,1613955239
150,lompoc,34.6391,-120.4579,16.11,55,1,5.66,US,1613954924
151,clyde river,70.4692,-68.5914,-28.0,76,40,1.54,CA,1613955089
152,raduzhnyy,62.0961,77.475,-28.03,88,74,2.49,RU,1613955240
153,mimongo,-1.6195,11.6068,20.76,96,95,1.69,GA,1613955240
154,leh,34.1667,77.5833,-10.63,77,3,0.71,IN,1613955182
155,iqaluit,63.7506,-68.5145,-27.0,76,75,2.06,CA,1613954954
156,tuktoyaktuk,69.4541,-133.0374,-24.0,77,90,8.23,CA,1613954909
157,kattivakkam,13.2167,80.3167,23.0,94,40,1.54,IN,1613954881
158,ancud,-41.8697,-73.8203,13.33,71,0,1.54,CL,1613954904
159,constitucion,-35.3333,-72.4167,13.39,83,0,6.44,CL,1613954964
160,bosaso,11.2842,49.1816,21.93,76,93,1.64,SO,1613955242
161,butembo,0.15,29.2833,14.75,87,100,1.38,CD,1613955242
162,fortuna,40.5982,-124.1573,12.22,76,1,6.69,US,1613954894
163,aksu,41.1231,80.2644,0.74,80,99,1.18,CN,1613955243
164,manggar,-2.8833,108.2667,27.93,75,100,4.85,ID,1613955244
165,pyay,18.8167,95.2167,24.19,46,59,1.53,MM,1613955244
166,oistins,13.0667,-59.5333,24.0,73,40,6.17,BB,1613955128
167,batemans bay,-35.7167,150.1833,20.0,89,100,3.52,AU,1613955244
168,crotone,39.0851,17.1178,6.67,84,0,2.09,IT,1613955245
169,faya,18.3851,42.4509,15.0,94,0,5.14,SA,1613955185
170,east london,-33.0153,27.9116,18.6,69,21,4.37,ZA,1613954949
171,klaksvik,62.2266,-6.589,7.0,87,90,10.29,FO,1613954952
172,petropavlovsk-kamchatskiy,53.0452,158.6483,0.0,59,40,3.0,RU,1613954695
173,yerbogachen,61.2767,108.0108,-30.91,86,85,2.17,RU,1613954962
174,coihaique,-45.5752,-72.0662,11.0,71,75,3.09,CL,1613954889
175,codrington,-38.2667,141.9667,16.1,64,100,8.38,AU,1613954966
176,miandrivazo,-19.5167,45.4667,25.45,84,100,1.85,MG,1613954888
177,guerrero negro,27.9769,-114.0611,22.54,21,0,2.71,MX,1613954938
178,mahebourg,-20.4081,57.7,24.0,94,75,1.54,MU,1613954879
179,meadow lake,34.8014,-106.5436,7.78,18,1,8.23,US,1613954963
180,chuy,-33.6971,-53.4616,20.41,84,0,4.5,UY,1613954882
181,dalbandin,28.8947,64.4101,15.82,45,0,3.47,PK,1613955249
182,kiunga,-6.1219,141.2906,29.45,78,97,1.01,PG,1613955085
183,uppsala,60.0,17.75,3.33,100,90,1.54,SE,1613955249
184,chabahar,25.2919,60.643,21.27,59,0,3.24,IR,1613954970
185,tual,-5.6667,132.75,28.14,77,100,8.65,ID,1613954957
186,saskylakh,71.9167,114.0833,-33.04,84,95,1.8,RU,1613954893
187,torbay,47.6666,-52.7314,-11.11,61,75,10.8,CA,1613954910
188,neuquen,-38.9516,-68.0591,25.0,25,0,4.63,AR,1613955250
189,bredasdorp,-34.5322,20.0403,12.0,76,59,2.2,ZA,1613954848
190,gallup,35.5281,-108.7426,5.0,22,1,7.2,US,1613955251
191,salinopolis,-0.6136,-47.3561,26.3,84,100,4.2,BR,1613954964
192,qaanaaq,77.484,-69.3632,-26.16,71,100,2.01,GL,1613954850
193,rawson,-43.3002,-65.1023,18.57,30,96,9.11,AR,1613954947
194,broome,42.2506,-75.833,-5.0,54,1,1.54,US,1613955252
195,norfolk,42.1668,-71.2495,-3.33,54,1,1.69,US,1613955252
196,pahrump,36.2083,-115.9839,16.11,16,0,1.34,US,1613955149
197,maniitsoq,65.4167,-52.9,-5.69,88,21,7.49,GL,1613954967
198,taoudenni,22.6783,-3.9836,21.91,18,0,3.4,ML,1613955253
199,pierre,44.3683,-100.351,6.0,33,1,4.63,US,1613955254
200,bambous virieux,-20.3428,57.7575,24.44,94,75,1.54,MU,1613954904
201,jacareacanga,-6.2222,-57.7528,22.95,90,100,0.69,BR,1613955254
202,chokurdakh,70.6333,147.9167,-36.29,83,27,3.25,RU,1613954858
203,sept-iles,50.2001,-66.3821,-7.0,45,1,1.54,CA,1613954980
204,wanning,18.8003,110.3967,20.54,76,61,0.94,CN,1613955255
205,talnakh,69.4865,88.3972,-37.89,81,8,1.43,RU,1613954927
206,olafsvik,64.8945,-23.7142,3.08,79,100,3.6,IS,1613954937
207,panguna,-6.3164,155.4848,27.07,79,85,0.09,PG,1613955256
208,nikolskoye,59.7035,30.7861,-11.0,85,75,6.0,RU,1613954875
209,camacha,33.0833,-16.3333,17.0,72,40,7.2,PT,1613955013
210,charters towers,-20.1,146.2667,30.38,49,92,1.75,AU,1613955257
211,provideniya,64.3833,-173.3,-19.72,82,12,0.35,RU,1613954903
212,warangal,18.0,79.5833,19.01,89,0,2.65,IN,1613955257
213,phuket,8.0,98.25,28.33,69,20,2.57,TH,1613955089
214,paso de los toros,-32.8167,-56.5167,23.64,54,0,5.27,UY,1613955258
215,chake chake,-5.2459,39.7666,25.85,83,100,2.25,TZ,1613955258
216,kahului,20.8947,-156.47,28.0,54,40,8.75,US,1613954772
217,sire,12.9299,5.2043,20.59,19,62,5.41,NG,1613955259
218,novo aripuana,-5.1206,-60.3797,23.61,94,99,1.03,BR,1613955259
219,narsaq,60.9167,-46.05,-10.0,67,95,4.63,GL,1613954934
220,tuatapere,-46.1333,167.6833,24.44,44,100,1.34,NZ,1613954916
221,huarmey,-10.0681,-78.1522,21.81,76,99,4.03,PE,1613954956
222,laguna,38.421,-121.4238,17.0,34,1,2.57,US,1613954941
223,nanortalik,60.1432,-45.2371,-5.18,95,100,4.15,GL,1613954901
224,srandakan,-7.9386,110.2506,27.66,73,91,1.17,ID,1613955261
225,kiama,-34.6833,150.8667,28.33,67,2,1.79,AU,1613955261
226,namibe,-15.1961,12.1522,20.94,75,94,2.39,AO,1613954889
227,perth,-31.9333,115.8333,25.56,53,0,9.26,AU,1613955234
228,kushiro,42.975,144.3747,-5.0,68,75,2.06,JP,1613955148
229,marsh harbour,26.5412,-77.0636,19.99,76,82,11.72,BS,1613955168
230,beaumont,30.0861,-94.1019,17.0,82,90,2.06,US,1613955088
231,husavik,66.0449,-17.3389,1.0,93,90,3.6,IS,1613955263
232,sumenep,-7.0167,113.8667,27.24,79,90,3.71,ID,1613955263
233,falam,22.9167,93.6833,13.04,50,33,0.86,MM,1613955263
234,saldanha,-33.0117,17.9442,15.0,67,0,4.12,ZA,1613954866
235,bulgan,48.8125,103.5347,-14.81,82,94,0.91,MN,1613955264
236,markova,48.6758,24.4138,-0.84,89,16,2.26,UA,1613955264
237,cidreira,-30.1811,-50.2056,24.27,76,1,7.75,BR,1613954878
238,fairbanks,64.8378,-147.7164,-23.33,59,100,0.69,US,1613954703
239,puerto leguizamo,-0.1934,-74.7819,26.29,62,99,0.66,CO,1613955265
240,simoes,-7.5989,-40.8178,23.02,83,99,1.99,BR,1613955265
241,zhuanghe,39.7008,122.9911,-0.22,69,0,7.54,CN,1613955265
242,jian,27.1172,114.9793,19.39,70,100,2.53,CN,1613955266
243,dickinson,29.4608,-95.0513,19.0,68,75,4.12,US,1613955266
244,hambantota,6.1241,81.1185,22.0,100,1,2.06,LK,1613954965
245,mariani,26.6667,94.3333,17.55,56,0,0.66,IN,1613955267
246,concordia,-31.393,-58.0209,27.78,60,0,3.52,AR,1613955168
247,sao filipe,14.8961,-24.4956,21.81,67,0,6.74,CV,1613954965
248,parkes,-33.1333,148.1833,30.9,34,0,5.52,AU,1613955268
249,alyangula,-13.8483,136.4192,28.0,89,40,2.06,AU,1613955268
250,kachug,53.9606,105.8817,-28.56,84,66,0.95,RU,1613955268
251,baillif,16.0202,-61.7463,24.39,78,10,5.22,GP,1613955268
252,nome,64.5011,-165.4064,-19.0,65,1,2.06,US,1613954957
253,cabo san lucas,22.8909,-109.9124,21.11,64,1,4.12,MX,1613954935
254,fort nelson,58.8053,-122.7002,-15.0,61,75,3.6,CA,1613955269
255,gari,59.4307,62.3497,-30.15,87,100,2.66,RU,1613955269
256,durban,-29.8579,31.0292,22.78,73,75,3.09,ZA,1613955243
257,umm kaddadah,13.6017,26.6876,16.39,28,0,6.98,SD,1613955019
258,vanimo,-2.6741,141.3028,28.91,68,52,1.27,PG,1613954966
259,sal rei,16.1833,-22.9167,20.0,73,75,7.72,CV,1613955271
260,lagoa,39.05,-27.9833,16.02,89,0,14.54,PT,1613954917
261,sisimiut,66.9395,-53.6735,-14.43,89,50,5.06,GL,1613954979
262,dedougou,12.4667,-3.4667,22.18,18,0,3.35,BF,1613955069
263,portland,45.5234,-122.6762,10.0,85,98,2.24,US,1613954698
264,sosenskiy,54.059,35.9623,-2.0,93,100,3.0,RU,1613955272
265,margate,51.3813,1.3862,11.67,77,100,0.89,GB,1613954911
266,mount isa,-20.7333,139.5,31.0,45,8,3.09,AU,1613954874
267,teguldet,57.3064,88.1667,-20.11,91,100,3.25,RU,1613955273
268,cartagena del chaira,1.3349,-74.8429,27.65,54,100,0.9,CO,1613955274
269,kalcheva,45.7374,28.8141,1.17,91,76,2.05,UA,1613955274
270,awjilah,29.1081,21.2869,12.05,45,0,2.81,LY,1613955274
271,unai,-16.3575,-46.9061,21.91,90,100,1.28,BR,1613954988
272,laurel,39.0993,-76.8483,0.0,64,1,2.57,US,1613955275
273,avera,33.194,-82.5271,12.0,66,90,7.2,US,1613954945
274,bideford,51.0179,-4.2046,8.33,94,100,0.45,GB,1613955275
275,altay,47.8667,88.1167,-8.65,89,82,1.37,CN,1613955276
276,soyo,-6.1349,12.3689,26.22,84,100,3.85,AO,1613954923
277,daru,-9.0763,143.2092,30.66,65,87,2.41,PG,1613955276
278,tiznit,29.5833,-9.5,9.53,79,45,2.72,MA,1613954992
279,kuchl,47.6265,13.1448,1.11,100,75,1.03,AT,1613955277
280,gayeri,12.6497,0.4931,21.6,18,72,3.73,BF,1613955277
281,palma di montechiaro,37.1926,13.765,7.78,91,5,0.45,IT,1613955278
282,omboue,-1.5746,9.2618,25.87,86,100,2.11,GA,1613955278
283,chicama,-7.8447,-79.1469,22.65,69,91,3.39,PE,1613955278
284,san buenaventura,27.0833,-101.5333,19.13,39,0,5.74,MX,1613955278
285,yugorsk,61.3133,63.3319,-34.1,84,94,2.51,RU,1613955279
286,kissidougou,9.1848,-10.0999,23.6,58,0,2.42,GN,1613955279
287,okakarara,-20.5833,17.4333,19.52,68,100,3.56,NA,1613955279
288,ponta do sol,32.6667,-17.1,13.89,94,99,5.45,PT,1613954872
289,hervey bay,-25.2986,152.8535,31.0,45,0,1.54,AU,1613955160
290,grants,35.1473,-107.8514,4.0,22,1,6.69,US,1613955128
291,sonepur,20.8333,83.9167,16.37,54,0,1.12,IN,1613955280
292,gaya,24.7833,85.0,13.0,88,90,1.99,IN,1613955281
293,touba,8.2833,-7.6833,25.48,28,100,0.5,CI,1613955281
294,rosario do sul,-30.2583,-54.9142,22.74,66,0,4.91,BR,1613955281
295,te anau,-45.4167,167.7167,21.32,30,100,2.83,NZ,1613954885
296,inirida,3.8653,-67.9239,23.98,88,100,1.03,CO,1613955033
297,aksarka,66.5606,67.7975,-38.81,82,40,2.07,RU,1613955096
298,waterloo,43.4668,-80.5164,-5.0,74,75,3.6,CA,1613955278
299,binga,-17.6203,27.3414,21.57,86,100,0.56,ZW,1613955282
300,safaga,26.7292,33.9365,14.0,47,0,4.12,EG,1613955283
301,cananea,30.95,-110.3,13.89,13,0,0.89,MX,1613955283
302,manzanillo,20.3433,-77.1167,24.45,65,2,6.63,CU,1613955283
303,chapais,49.7834,-74.8492,-11.0,73,1,4.12,CA,1613954870
304,mattru,7.6244,-11.8332,24.38,92,14,0.63,SL,1613955284
305,huilong,31.8111,121.655,19.44,57,100,0.45,CN,1613955284
306,champerico,14.3,-91.9167,28.0,74,40,3.09,GT,1613955284
307,deputatskiy,69.3,139.9,-32.73,85,0,0.87,RU,1613955177
308,tura,25.5198,90.2201,17.36,37,0,1.22,IN,1613955086
309,sitka,57.0531,-135.33,3.0,93,90,4.63,US,1613954993
310,port macquarie,-31.4333,152.9167,28.89,58,0,0.89,AU,1613955285
311,raub,3.7899,101.857,23.2,81,75,1.31,MY,1613955286
312,haines junction,60.7522,-137.5108,-15.0,72,100,2.06,CA,1613954870
313,san policarpo,12.1791,125.5072,26.85,87,100,9.19,PH,1613955077
314,ulaanbaatar,47.9077,106.8832,-24.0,77,0,1.0,MN,1613955090
315,rio cuarto,-33.1307,-64.3499,24.0,78,0,4.63,AR,1613955016
316,chipinge,-20.1883,32.6236,19.04,92,100,0.47,ZW,1613955287
317,havre-saint-pierre,50.2334,-63.5986,-7.0,35,40,5.66,CA,1613955287
318,betioky,-23.7167,44.3833,23.76,79,100,1.14,MG,1613955287
319,ketchikan,55.3422,-131.6461,7.0,70,75,2.57,US,1613955288
320,birmingham,33.5207,-86.8025,14.0,26,1,3.09,US,1613955110
321,presidencia roque saenz pena,-26.7852,-60.4388,28.33,47,0,0.89,AR,1613955288
322,auki,-8.7676,160.7034,28.77,78,96,1.64,SB,1613954933
323,lloydminster,53.2835,-110.0016,4.0,60,90,8.75,CA,1613955289
324,kidal,18.4411,1.4078,19.7,21,0,4.17,ML,1613955289
325,katunino,64.3862,40.6298,-33.0,68,0,3.0,RU,1613955290
326,zaraza,9.3503,-65.3245,23.76,77,20,5.18,VE,1613955290
327,san quintin,30.4833,-115.95,17.79,42,0,2.68,MX,1613954769
328,namie,37.4833,141.0,19.44,33,0,0.45,JP,1613955290
329,vila velha,-20.3297,-40.2925,26.0,83,40,2.57,BR,1613954686
330,kargil,34.5667,76.1,-10.64,84,99,0.6,IN,1613955291
331,marystown,47.1666,-55.1483,-11.07,88,92,9.11,CA,1613955291
332,badou,7.5833,0.6,23.01,42,0,0.65,TG,1613955291
333,kurilsk,45.2333,147.8833,-5.29,90,96,2.89,RU,1613955292
334,reykjavik,64.1355,-21.8954,2.0,87,0,0.51,IS,1613955292
335,buncrana,55.1333,-7.45,3.47,88,75,3.39,IE,1613955292
336,beni suef,29.0731,31.0979,9.54,67,0,3.27,EG,1613955293
337,bitung,1.4451,125.1824,27.0,89,40,1.54,ID,1613955293
338,tautira,-17.7333,-149.15,28.0,69,75,4.12,PF,1613954978
339,dhidhdhoo,6.8833,73.1,27.11,69,100,0.98,MV,1613955156
340,qaqortoq,60.7167,-46.0333,-10.0,67,87,4.63,GL,1613954956
341,bilma,18.6853,12.9164,17.45,24,0,4.93,NE,1613954940
342,mbalmayo,3.5167,11.5,23.0,94,75,1.54,CM,1613955294
343,port hardy,50.6996,-127.4199,10.0,87,90,3.6,CA,1613954564
344,necochea,-38.5473,-58.7368,18.89,85,77,0.89,AR,1613954902
345,manokwari,-0.8667,134.0833,25.84,86,99,3.94,ID,1613955101
346,inhambane,-23.865,35.3833,26.41,88,100,5.37,MZ,1613955075
347,esperance,-33.8667,121.9,18.0,72,90,4.63,AU,1613954913
348,fredericksburg,38.3032,-77.4605,0.0,69,1,1.54,US,1613955174
349,magalia,39.8121,-121.5783,19.0,32,40,8.23,US,1613954998
350,caledon,-34.23,19.4265,14.44,71,48,2.94,ZA,1613955068
351,sinnamary,5.3833,-52.95,25.2,85,100,6.81,GF,1613955297
352,calama,-22.4667,-68.9333,19.0,12,0,8.75,CL,1613955073
353,saint-pierre,-21.3393,55.4781,24.0,78,0,2.57,RE,1613954860
354,bayanday,53.0661,105.5139,-24.73,85,0,2.38,RU,1613955297
355,dalianwan,39.0286,121.695,1.0,34,0,7.0,CN,1613955298
356,urucara,-2.5364,-57.76,24.41,86,99,0.53,BR,1613954869
357,glyadyanskoye,54.9075,65.0883,-27.45,89,100,2.07,RU,1613955298
358,benguela,-12.5763,13.4055,21.92,81,100,2.08,AO,1613955119
359,acapulco,16.8634,-99.8901,27.0,69,1,3.6,MX,1613954705
360,mayo,38.8876,-76.5119,1.11,51,1,2.06,US,1613955092
361,port lincoln,-34.7333,135.8667,17.46,61,98,5.89,AU,1613954856
362,cap malheureux,-19.9842,57.6142,24.44,86,54,1.34,MU,1613955061
363,alofi,-19.0595,-169.9187,26.0,83,90,3.6,NU,1613954929
364,lazaro cardenas,17.9583,-102.2,23.82,71,0,4.9,MX,1613954915
365,jishou,28.3167,109.7167,18.57,75,0,0.45,CN,1613955300
366,mathbaria,22.2876,89.9593,17.85,45,2,2.09,BD,1613955301
367,jalu,29.0331,21.5482,12.01,45,0,2.97,LY,1613955027
368,shenjiamen,29.9576,122.298,15.31,66,100,1.4,CN,1613955302
369,san cristobal,7.7669,-72.225,19.63,85,77,1.04,VE,1613954752
370,wagar,16.1525,36.2032,16.03,74,0,2.94,SD,1613955032
371,roald,62.5833,6.1333,8.0,61,20,5.66,NO,1613955159
372,wanxian,30.8039,108.3897,17.47,59,0,1.28,CN,1613955303
373,alekseyevka,50.6309,38.6903,0.36,96,99,6.08,RU,1613955307
374,amnat charoen,15.9167,104.75,21.57,62,26,3.23,TH,1613955308
375,pomorie,42.5588,27.6439,-1.0,100,0,1.03,BG,1613955308
376,northam,51.0333,-4.2167,8.33,94,100,0.45,GB,1613955308
377,alihe,50.5667,123.7167,-18.47,80,0,4.14,CN,1613955308
378,tiarei,-17.5333,-149.3333,28.0,69,75,4.12,PF,1613955163
379,clyde,41.3042,-82.9752,0.0,63,100,6.64,US,1613955309
380,sayat,38.7839,63.8803,1.0,69,0,2.06,TM,1613955309
381,mao,39.8885,4.2658,16.0,82,40,3.6,ES,1613954942
382,pisco,-13.7,-76.2167,23.33,73,0,8.23,PE,1613954901
383,bowen,-20.0167,148.2333,31.0,70,100,2.06,AU,1613955310
384,shimoda,34.6667,138.95,18.0,52,0,7.2,JP,1613955069
385,rio grande,-32.035,-52.0986,23.33,87,0,0.89,BR,1613955220
386,beyneu,45.3167,55.2,-4.28,95,20,2.85,KZ,1613954877
387,sioux lookout,50.1001,-91.917,-1.0,59,20,4.12,CA,1613954992
388,tasiilaq,65.6145,-37.6368,0.0,93,75,16.46,GL,1613954907
389,san lawrenz,36.0553,14.204,13.33,88,20,5.66,MT,1613955311
390,mayumba,-3.432,10.6554,25.36,83,100,0.68,GA,1613955312
391,algeciras,36.1333,-5.4505,12.0,82,75,5.66,ES,1613955312
392,richards bay,-28.783,32.0377,22.02,86,100,4.06,ZA,1613954859
393,salalah,17.0151,54.0924,22.0,73,40,0.51,OM,1613954861
394,nakusp,50.2499,-117.8023,3.0,93,100,1.54,CA,1613954923
395,waipawa,-41.4122,175.5153,23.33,53,94,9.77,NZ,1613955314
396,pedernales,18.0384,-71.744,24.41,69,2,2.45,DO,1613955314
397,chaoyang,41.5703,120.4586,-3.45,64,0,9.21,CN,1613955314
398,vigrestad,58.5667,5.7,8.0,81,0,3.09,NO,1613955315
399,peniche,39.3558,-9.3811,9.44,78,13,3.73,PT,1613955158
400,noumea,-22.2763,166.4572,31.11,66,75,1.54,NC,1613954993
401,pemangkat,1.1667,108.9667,25.78,85,100,5.39,ID,1613955141
402,thinadhoo,0.5333,72.9333,27.89,73,100,4.61,MV,1613954902
403,yarkovo,57.4028,67.0786,-30.33,87,73,0.98,RU,1613955316
404,biga,40.2281,27.2422,2.78,50,62,0.49,TR,1613955316
405,touros,-5.1989,-35.4608,27.0,78,40,4.12,BR,1613954987
406,ciego de avila,21.84,-78.7619,22.99,76,0,5.35,CU,1613955317
407,oussouye,12.485,-16.5469,23.0,73,0,6.17,SN,1613955186
408,tanout,14.9709,8.8879,17.12,26,1,4.82,NE,1613955317
409,mitha tiwana,32.2486,72.1108,16.46,34,92,1.76,PK,1613955318
410,zeya,53.75,127.2667,-23.38,81,0,2.14,RU,1613955318
411,kapoeta,4.7717,33.5903,26.31,41,100,3.36,SS,1613955319
412,iranduba,-3.2847,-60.1861,26.0,89,0,2.06,BR,1613955319
413,katangli,51.7102,143.2326,-13.96,89,0,4.41,RU,1613955319
414,kungurtug,50.5994,97.5228,-15.95,83,100,0.83,RU,1613955319
415,mocuba,-16.8392,36.9856,24.02,93,4,0.48,MZ,1613955090
416,sultepec,18.8667,-99.95,20.0,28,40,5.14,MX,1613955320
417,cotacachi,0.3,-78.2667,16.0,72,75,4.12,EC,1613955320
418,kavaratti,10.5669,72.642,26.77,66,49,1.23,IN,1613954959
419,mitu,1.1983,-70.1733,23.67,90,95,1.38,CO,1613954937
420,wakkanai,45.4094,141.6739,-6.0,79,40,3.09,JP,1613955321
421,opuwo,-18.0607,13.84,19.07,58,84,0.36,NA,1613954982
422,praia da vitoria,38.7333,-27.0667,17.0,88,75,10.38,PT,1613954938
423,dukat,62.55,155.55,-30.16,82,1,1.64,RU,1613955322
424,san andres,12.5847,-81.7006,27.0,74,20,6.17,CO,1613955322
425,carnarvon,-24.8667,113.6333,27.0,83,1,5.66,AU,1613955050
426,santa cruz,-17.8,-63.1667,27.0,74,0,2.06,BO,1613954704
427,russell,32.3502,-85.1999,14.44,51,40,3.09,US,1613955153
428,michalovce,48.7543,21.9195,2.22,91,13,0.45,SK,1613955323
429,manaure,11.7751,-72.4445,25.73,72,0,8.79,CO,1613955324
430,shelbyville,35.4834,-86.4603,9.0,40,1,2.57,US,1613955324
431,coquimbo,-29.9533,-71.3436,17.0,77,0,3.6,CL,1613954830
432,nemuro,43.3236,145.575,-1.0,51,75,0.51,JP,1613954892
433,harrison,30.4091,-89.0436,14.44,77,90,9.77,US,1613955325
434,slave lake,55.2834,-114.769,8.0,46,90,12.86,CA,1613955325
435,thunder bay,48.4001,-89.3168,-2.0,80,90,2.06,CA,1613954858
436,tecoanapa,16.5167,-98.75,24.71,79,1,3.52,MX,1613955326
437,sao borja,-28.6606,-56.0044,24.17,55,0,3.45,BR,1613955326
438,qasigiannguit,68.8193,-51.1922,-14.0,78,90,3.6,GL,1613954981
439,souillac,-20.5167,57.5167,24.0,94,75,1.54,MU,1613954882
440,hami,42.8,93.45,3.39,70,100,2.48,CN,1613954913
441,lerwick,60.1545,-1.1494,7.0,87,4,7.2,GB,1613955327
442,zhaoyuan,37.3592,120.3964,3.27,70,0,10.44,CN,1613955327
443,utiel,39.5667,-1.2,9.44,84,100,5.49,ES,1613955328
444,gabu,12.2833,-14.2167,21.26,67,0,1.83,GW,1613955328
445,nhulunbuy,-12.2333,136.7667,30.0,74,75,3.6,AU,1613955328
446,gachala,4.6924,-73.5204,13.0,88,40,3.6,CO,1613955329
447,chongwe,-15.3292,28.682,19.01,92,100,0.51,ZM,1613955329
448,sayyan,15.1718,44.3244,12.1,47,0,0.32,YE,1613955329
449,barstow,34.8986,-117.0228,17.0,15,0,2.57,US,1613955083
450,chingirlau,51.095,54.0814,-23.0,90,100,3.38,KZ,1613955330
451,jardim,-21.4803,-56.1381,23.99,68,0,2.11,BR,1613955330
452,syasstroy,60.1367,32.5691,-15.58,93,100,5.22,RU,1613955330
453,haapiti,-17.5667,-149.8667,28.0,69,75,4.12,PF,1613955331
454,ambilobe,-13.2,49.05,23.21,93,100,0.72,MG,1613955032
455,ashoknagar,24.5667,77.7167,15.81,31,37,0.88,IN,1613955332
456,dourbali,11.8091,15.8632,20.54,20,2,4.84,TD,1613955332
457,zorritos,-3.6805,-80.6782,24.23,76,99,3.68,PE,1613955332
458,ongandjera,-17.8833,15.0667,20.8,57,97,2.0,NA,1613955332
459,porto,41.1496,-8.611,8.33,93,20,2.06,PT,1613955196
460,khomutovo,52.4658,104.4025,-26.0,76,0,3.0,RU,1613955333
461,palmer,42.1584,-72.3287,-6.67,53,0,0.48,US,1613955110
462,sabang,5.8933,95.3214,27.76,78,98,9.04,ID,1613954942
463,carlsbad,33.1581,-117.3506,21.11,28,1,7.72,US,1613955334
464,presidente venceslau,-21.8761,-51.8439,28.0,47,0,3.09,BR,1613955334
465,bilibino,68.0546,166.4372,-31.75,82,95,1.16,RU,1613955334
466,moindou,-21.6924,165.677,31.0,66,75,1.54,NC,1613955335
467,cangzhou,38.3167,116.8667,5.06,61,24,6.99,CN,1613955335
468,marawi,7.9986,124.2928,26.11,83,0,0.45,PH,1613955335
469,ciudad bolivar,8.1222,-63.5497,28.87,54,99,7.15,VE,1613954914
470,norton shores,43.1689,-86.2639,0.0,46,100,4.47,US,1613955201
471,road town,18.4167,-64.6167,26.0,69,75,4.12,VG,1613955016
472,west des moines,41.572,-93.7453,-0.56,86,90,7.2,US,1613955157
473,yagunovskiy,55.2828,85.978,-19.0,71,40,4.0,RU,1613955336
474,turbat,26.0023,63.044,14.82,38,0,0.37,PK,1613955337
475,zyryanka,65.75,150.85,-33.03,81,7,1.26,RU,1613955053
476,krasnoborsk,61.5598,45.934,-34.43,83,0,1.71,RU,1613955337
477,price,39.5994,-110.8107,2.0,38,1,6.17,US,1613954872
478,berlevag,70.8578,29.0864,-14.61,91,100,11.28,NO,1613954881
479,krasnoarmeyskiy,47.0114,42.2072,-0.49,98,99,6.26,RU,1613955338
480,florianopolis,-27.6146,-48.5012,23.0,83,40,0.51,BR,1613955338
481,kargasok,59.0556,80.8572,-22.91,90,100,3.19,RU,1613955339
482,henties bay,-22.116,14.2845,16.67,88,1,0.89,NA,1613954860
483,bend,44.0582,-121.3153,8.0,57,75,3.6,US,1613955327
484,aleksandrov gay,50.147,48.5704,-10.76,97,100,3.54,RU,1613955339
485,valparaiso,-33.0393,-71.6273,17.0,72,0,2.57,CL,1613955340
486,leningradskiy,69.3833,178.4167,-24.31,85,99,4.75,RU,1613955063
487,sao jose da coroa grande,-8.8978,-35.1478,25.8,80,7,3.62,BR,1613955340
488,dharangaon,21.0167,75.2667,20.16,25,0,2.41,IN,1613955340
489,sidi ali,36.0998,0.4206,11.73,80,100,9.64,DZ,1613955109
490,okha,53.5739,142.9478,-15.95,93,100,7.69,RU,1613955341
491,ikare,7.4913,5.2322,20.57,63,17,1.09,NG,1613955341
492,ostrovnoy,68.0531,39.5131,-28.84,86,4,3.63,RU,1613954949
493,upata,8.0086,-62.3989,26.67,81,100,0.89,VE,1613955342
494,batagay-alyta,67.8006,130.4114,-28.92,78,100,0.39,RU,1613955166
495,sembe,1.6481,14.5806,23.58,70,49,1.95,CG,1613955343
496,novobirilyussy,56.9514,90.6661,-17.57,92,100,3.42,RU,1613955343
497,kawalu,-7.3817,108.2082,26.02,78,93,0.55,ID,1613954869
498,olga,43.7444,135.2892,-2.48,88,95,0.56,RU,1613955344
499,marienburg,54.0359,19.0266,2.22,100,0,0.51,PL,1613954919
500,mandalgovi,45.7625,106.2708,-9.71,88,100,3.0,MN,1613955062
501,okhotsk,59.3833,143.3,-12.2,93,100,3.67,RU,1613955105
502,stolin,51.8912,26.846,-1.38,98,100,2.63,BY,1613955345
503,samarai,-10.6167,150.6667,29.46,69,71,2.25,PG,1613954953
504,jagdalpur,19.0667,82.0333,15.57,62,14,1.05,IN,1613955346
505,saint-denis,48.9167,2.3333,12.78,58,0,2.57,FR,1613955346
506,vallenar,-28.5708,-70.7581,17.8,64,0,0.54,CL,1613955346
507,mount pleasant,32.7941,-79.8626,7.22,81,90,4.63,US,1613955346
508,baykit,61.67,96.37,-28.29,82,100,0.97,RU,1613954917
509,yuci,37.6803,112.7319,7.0,31,0,2.0,CN,1613955347
510,koubia,11.5833,-11.9,23.2,24,53,1.04,GN,1613955347
511,surskoye,54.4821,46.7214,-17.72,93,100,1.54,RU,1613955347
512,grand gaube,-20.0064,57.6608,24.44,86,67,1.34,MU,1613954861
513,kamina,-8.7386,24.9906,17.97,95,100,1.1,CD,1613955348
514,orbetello,42.4408,11.2196,7.22,93,0,1.54,IT,1613955348
515,wanaka,-44.7,169.15,22.22,36,100,2.24,NZ,1613955349
516,ukiah,39.1502,-123.2078,18.0,39,1,3.6,US,1613955140
517,chilca,-12.5211,-76.7372,22.78,73,0,4.12,PE,1613955349
518,esperanza,19.5847,-70.9849,23.33,81,10,0.89,DO,1613955350
519,grenfell,-33.9,148.1667,30.13,33,0,5.97,AU,1613955350
520,san ramon de la nueva oran,-23.1322,-64.326,25.56,86,100,1.16,AR,1613955350
521,plettenberg bay,-34.0527,23.3716,16.19,72,96,0.41,ZA,1613955350
522,south sioux city,42.4739,-96.4136,0.0,86,90,5.14,US,1613955351
523,dabola,10.75,-11.1167,26.59,24,0,0.79,GN,1613955351
524,irituia,-1.7711,-47.4381,23.69,97,100,1.35,BR,1613955351
525,pakxan,18.3778,103.6601,23.25,52,0,0.96,LA,1613955352
526,weiser,44.251,-116.9693,3.0,75,90,3.09,US,1613955352
527,juneau,58.3019,-134.4197,4.44,90,100,1.79,US,1613954886
528,marquette,46.5333,-87.6335,-1.67,83,100,2.68,US,1613955352
529,ojinaga,29.5667,-104.4167,21.0,19,1,7.2,MX,1613954991
530,lethem,3.3803,-59.7968,29.47,50,28,4.19,GY,1613955099
531,yushan,31.3776,120.9543,19.44,51,0,2.0,CN,1613955353
532,rocha,-34.4833,-54.3333,19.4,78,0,3.55,UY,1613954940
533,altar,30.7,-111.8167,22.78,9,0,1.79,MX,1613955354
534,pingdingshan,33.7385,113.3012,17.1,28,0,2.6,CN,1613955354
535,gazli,40.1333,63.45,2.22,71,77,3.4,UZ,1613955354
536,gamba,-2.65,10.0,25.57,81,100,0.98,GA,1613955077
537,batticaloa,7.7102,81.6924,25.46,83,71,3.36,LK,1613955355
538,vzmorye,54.6961,20.2361,4.0,81,26,4.0,RU,1613955355
539,xam nua,20.4197,104.0439,18.95,66,0,0.16,LA,1613955355
540,karangasem,-8.45,115.6167,28.0,83,40,1.03,ID,1613955356
541,brasilia,-15.7797,-47.9297,20.0,94,75,1.54,BR,1613955312
542,rio gallegos,-51.6226,-69.2181,10.0,81,75,4.63,AR,1613955167
543,arequipa,-16.3989,-71.535,13.0,76,40,0.87,PE,1613955091
544,nagyrabe,47.2,21.3333,1.11,93,0,2.57,HU,1613955357
545,makakilo city,21.3469,-158.0858,27.0,65,90,6.69,US,1613954789
546,mormugao,15.4,73.8,25.0,78,75,3.09,IN,1613955357
547,morant bay,17.8815,-76.4093,27.0,74,20,2.06,JM,1613954932
